ORGID,ORGNAME,dianLevel,sales,DRUGSTORE_ID3,NODE_NAME3,address,Longitude,Latitude,isYibao,fraction,population,ranking,level,id
D017389,北京诚缘药店,C,3820.02,,,北京市丰台区富丰园小区32号楼底商北侧,116.284003,39.836642,False,10.630778538136772,175562,,3,0
D017391,北京芳雪天通大药房有限责任公司,B,16935.971,,,北京市昌平区东小口镇天通苑西苑三区26号楼10门,116.41093,40.075749,False,9.508588929607733,147449,,3,1
D017396,北京安平利医药有限公司,B,132.401,,,丰台区东铁匠营横七条13号,116.423308,39.854384,False,23.033059406323115,386151,,2,2
D017423,北京市鹿春堂药店,B,2812.319,,,市鹿春堂药店,116.435735,39.964553,False,15.472340342598345,257465,,3,3
D017441,北京市天弘济生大药房,A,18608.964,,,北京市海淀区中关村南大街48号-9平房,116.325295,39.944718,False,29.807625790210302,486661,,1,4
D017508,北京德信堂医药有限公司,C,7417.473,,,北京市昌平区东小口镇天通苑西苑三区36-4-101,116.41093,40.075749,False,9.106335985129348,147449,,3,5
D017558,北京博士安医药生物技术有限公司,B,9409.134,,,北京市海淀区清河小营东路7号院22号平房,116.349927,40.040946,False,18.383993068749767,301616,,2,6
D017564,北京兴事堂药店,B,5826.003,,,兴事堂药店,116.390842,39.870639,False,27.258727647325646,452977,,1,7
D017565,北京云海世纪同生堂药店,A,2372.575,,,北京市石景山区西井小区14号楼底商,116.196039,39.930897,False,12.413471419064226,206482,,3,8
D017596,北京市民众药店,C,1335.153,,,北京市昌平区昌平镇城角西路9号5号楼,116.222325,40.220067,False,9.92221896192853,165441,,3,9
D017629,北京双惠健祥大药房,B,7478.03,,,北京市朝阳区双桥中路（双桥影剧院）,116.591087,39.893978,False,9.557576191865726,154973,,3,10
D036256,北京同仁堂连锁药店有限责任公司垡头药店,B,0,W701927,北京同仁堂商业投资集团有限公司,北京市朝阳区垡头村,116.51506,39.860813,False,14.333821332625684,240366,,3,11
D036271,北京国大药房连锁有限公司蓝堡华贸连锁店,A,16886.367,W219036,北京国大药房连锁有限公司,北京市朝阳区西大望路3号蓝堡国际公寓S112号,116.476434,39.912083,True,22.316861698983452,362268,,2,12
D036446,北京嘉事堂药业股份有限公司嘉事堂惠康大药房,C,7891.553,W703139,北京嘉事堂连锁药店有限责任公司,嘉事堂药业(嘉事堂惠康大药房),116.206882,39.980518,False,4.7957397163563105,74828,,4,13
D036456,北京嘉事堂药业股份有限公司北京小营药店,B,8159.297,W703139,北京嘉事堂连锁药店有限责任公司,嘉事堂药业(小营药店),116.206882,39.980518,False,4.807054612085282,74828,,4,14
D036458,北京金象大药房医药连锁有限责任公司万泉河金象大药房,B,11643.449,W219032,北京金象大药房医药连锁有限责任公司,金象大药房医药连锁(万泉河金象大药房),116.367551,39.941209,False,35.24861554674444,582838,,1,15
D036464,北京永安堂医药连锁有限责任公司草桥药店,B,1583.568,W701458,北京亚泰永安医药股份有限公司,北京市丰台区花乡草桥东路甲28号草桥集贸市场内,116.361398,39.852334,False,15.510817273134196,258981,,3,16
D036470,北京医保全新大药房有限责任公司保福寺店,B,18207.705,C700296,北京医保全新大药房有限责任公司,北京市海淀区中关村甲334号楼76号底商,116.333656,39.983228,True,21.710891085013206,351170,,2,17
D036487,北京嘉事堂药业股份有限公司北京普惠桥药店,A,24280.815,W703139,北京嘉事堂连锁药店有限责任公司,嘉事堂药业(普惠桥药店),116.206882,39.980518,False,5.4883520273877044,74828,,4,18
D036515,北京金象大药房医药连锁有限责任公司永安里金象大药房,B,4432.779,W219032,北京金象大药房医药连锁有限责任公司,金象大药房医药连锁(永安里金象大药房),116.447588,39.905722,False,23.65721349344899,393570,,2,19
D036520,北京金象大药房医药连锁有限责任公司东盛堂金象大药房,B,8749.933,W219032,北京金象大药房医药连锁有限责任公司,金象大药房医药连锁(东盛堂金象大药房),116.367551,39.941209,False,35.12633519002269,582838,,1,20
D036527,北京金象大药房医药连锁有限责任公司八里庄金象大药房,B,17598.446,W219032,北京金象大药房医药连锁有限责任公司,北京市朝阳区八里庄北里124号楼101号,116.496271,39.930188,False,16.05224044390254,256711,,3,21
D036530,仁和药房网（北京）医药科技有限公司第二十一药房,C,57279.168,W219051,仁和药房网（北京）医药科技有限公司,北京市丰台区大灰厂村464号,116.12094,39.851542,True,3.4958136401080244,18030,,4,22
D036541,北京普安法玛西医药有限公司大望路大药房,A,17536.523,D047005,北京普安法玛西医药有限公司,北京市朝阳区建国路93号院6-1-11号,116.472164,39.910106,False,21.257579846845925,344044,,2,23
D036572,北京医保全新大药房有限责任公司丰北路店,A,10939.646,C700296,北京医保全新大药房有限责任公司,北京市丰台区丰北路甲79号,116.293632,39.866507,False,14.7641090835657,239829,,3,24
D036573,北京普安法玛西医药有限公司双井大药房,A,28159.728,D047005,北京普安法玛西医药有限公司,北京市朝阳区广渠门外大街一号院9号楼商业6号,116.47638,39.893689,False,19.057963809419338,299630,,2,25
D036587,北京金象大药房连锁有限责任公司望京堂金象大药房,B,23642.092,W219032,北京金象大药房医药连锁有限责任公司,金象大药房连锁(望京堂金象大药房),116.37286,39.93181,False,23.430368077934506,376153,,2,26
D036596,北京嘉事堂药业股份有限公司北京八角北里药店,B,21434.605,W703139,北京嘉事堂连锁药店有限责任公司,嘉事堂药业(八角北里药店),116.206882,39.980518,False,5.368070828284251,74828,,4,27
D036635,北京医保全新大药房有限责任公司京客隆店,A,8337.427,C700296,北京医保全新大药房有限责任公司,北京市朝阳区甜水园北里16号楼京客隆商厦内,116.478958,39.928654,False,17.832475384787745,293127,,2,28
D036644,北京医保全新大药房有限责任公司景泰东里药店,B,7308.86,C700296,北京医保全新大药房有限责任公司,医保全新大药房(景泰东里药店),116.467554,39.871642,False,21.55866837009888,356341,,2,29
D036699,北京金象大药房医药连锁有限责任公司宏旭路金象大药房,B,9391.89,W219032,北京金象大药房医药连锁有限责任公司,金象大药房医药连锁(宏旭路金象大药房),116.37286,39.93181,False,22.828152716444514,376153,,2,30
D036716,北京医保全新大药房有限责任公司宝雅店,B,18907.782,C700296,北京医保全新大药房有限责任公司,医保全新大药房(宝雅店),116.280257,39.953039,False,17.52684604193758,280511,,2,31
D036718,北京五洲全新医药有限公司光明楼医保全新大药房,C,9645.353,W219013,北京五洲全新医药有限公司,五洲全新(光明楼医保全新大药房),116.437798,39.886174,False,19.350017015975244,317648,,2,32
D036721,北京五洲全新医药有限公司南庆仁堂医保全新大药房,A,19849.262,W219013,北京五洲全新医药有限公司,五洲全新(南庆仁堂医保全新大药房),116.336149,39.897891,False,23.883232338635974,386435,,2,33
D036726,仁和药房网（北京）医药科技有限公司第八药房,A,62126.985,W219051,仁和药房网（北京）医药科技有限公司,北京市丰台区东大街8号,116.295301,39.863208,True,22.311644206953545,330120,,2,34
D036738,北京国大药房连锁有限公司定福庄连锁店,B,8570.957,W219036,北京国大药房连锁有限公司,北京市朝阳区三间房乡美然动力街区A3-9D幢4单元204室,116.558405,39.922246,False,13.707608881154293,223791,,3,35
D037473,仁和药房网（北京）医药科技有限公司第三十一药房,B,47570.041,W219051,仁和药房网（北京）医药科技有限公司,北京市通州区新华联家园小区7号楼311号,116.642476,39.892579,True,12.696009694402438,179190,,3,36
D037633,北京国大药房连锁有限公司陶然亭连锁店,B,12602.189,W219036,北京国大药房连锁有限公司,北京市西城区陶然亭路47号,116.37935,39.879009,True,28.934307835846887,476273,,1,37
D037635,北京同仁堂连锁药店有限责任公司新街口药店,A,5568.236,W701927,北京同仁堂商业投资集团有限公司,北京市西城区新街口南大街39号,116.372617,39.938934,True,31.205220414175745,519339,,1,38
D037636,北京国大药房连锁有限公司太月园连锁店,B,19481.905,W219036,北京国大药房连锁有限公司,北京市海淀区罗庄西里13号楼1层,116.345148,39.973996,True,31.144284116903645,508457,,1,39
D037653,北京同仁堂连锁药店有限责任公司牡丹园药店,A,12527.995,W701927,北京同仁堂商业投资集团有限公司,北京市海淀区花园路2号,116.367625,39.977454,True,29.871410861530816,492040,,1,40
D037669,北京同仁堂连锁药店有限责任公司北京站药店,A,5774.556,W701927,北京同仁堂商业投资集团有限公司,北京市东城区北京站西街1号楼,116.426207,39.905554,False,29.702294628261033,493990,,1,41
D037680,北京同仁堂连锁药店有限责任公司京北药店永泰小区店,B,17925.074,W701927,北京同仁堂商业投资集团有限公司,同仁堂连锁药店(京北药店永泰小区店),116.366202,39.939669,False,35.514077823708625,582838,,1,42
D037683,北京同仁堂连锁药店有限责任公司宣武药店,A,8764.916,W701927,北京同仁堂商业投资集团有限公司,北京市西城区广安门内大街306号,116.359411,39.888969,True,36.245689358186794,601598,,1,43
D037691,北京医保全新大药房有限责任公司西翠路店,B,32137.677,C700296,北京医保全新大药房有限责任公司,医保全新大药房(西翠路店),116.28286,39.900462,True,18.290306468580763,283938,,2,44
D037699,北京永安堂医药连锁有限责任公司十条药店,A,16632.35,W701458,北京亚泰永安医药股份有限公司,北京市东城区东四十条28号,116.428467,39.933153,True,23.968107390048527,390138,,2,45
D037702,仁和药房网（北京）医药科技有限公司第十五药房,A,47981.339,W219051,仁和药房网（北京）医药科技有限公司,仁和药房网医药科技(第十五药房),116.317793,39.974104,False,33.18264575430483,522442,,1,46
D037741,北京同仁堂连锁药店有限责任公司北京同仁堂时珍药店,C,12623.316,W701927,北京同仁堂商业投资集团有限公司,北京市海淀区新科祥园4号楼1层03、04室,116.324197,39.983496,True,25.995874581662502,426983,,2,47
D037750,北京医保全新大药房有限责任公司会城门药店,B,25192.631,C700296,北京医保全新大药房有限责任公司,医保全新大药房(会城门药店),116.467554,39.871642,False,22.314438822866443,356341,,2,48
D037760,北京朝望金象大药房有限公司,B,13042.605,W219032,北京金象大药房医药连锁有限责任公司,北京市朝阳区望京东园513号楼1层21-22,116.482974,39.997431,False,10.638992213583434,169164,,3,49
D037762,北京国大药房连锁有限公司育芳园连锁店,B,0,W219036,北京国大药房连锁有限公司,北京市丰台区花乡育芳园22号,116.318058,39.851456,True,12.038833214563649,201881,,3,50
D037773,北京嘉事堂药业股份有限公司嘉事堂劲松药店,B,13385.006,W703139,北京嘉事堂连锁药店有限责任公司,嘉事堂药业(嘉事堂劲松药店),116.206882,39.980518,False,5.0278937436622595,74828,,4,51
D037774,北京国大药房连锁有限公司翠微路连锁店,A,22018.107,W219036,北京国大药房连锁有限公司,北京市海淀区翠微路甲3号一层,116.301393,39.909271,False,27.164733645256604,439926,,1,52
D037796,北京医保全新大药房有限责任公司怡秀园药店,B,12912.96,C700296,北京医保全新大药房有限责任公司,医保全新大药房(怡秀园药店),116.467554,39.871642,False,21.795498353794972,356341,,2,53
D037826,北京永生堂医药连锁有限公司第二药店,C,3212.943,,,北京市房山区房山南大街26号,116.668945,39.906952,True,11.516260802399533,190841,,3,54
D037871,北京医保全新大药房有限责任公司安定门店,B,25286.433,C700296,北京医保全新大药房有限责任公司,北京市东城区安定门内大街96号,116.408706,39.946187,True,37.62860050238773,613080,,1,55
D037877,北京五洲全新医药有限公司骏景医保全新大药房,B,10854.767,W219013,北京五洲全新医药有限公司,五洲全新(骏景医保全新大药房),116.336149,39.897891,False,23.50312382804469,386435,,2,56
D037881,北京嘉事堂药业股份有限公司嘉事堂高家园药店,B,7158.93,W703139,北京嘉事堂连锁药店有限责任公司,嘉事堂药业(嘉事堂高家园药店),116.206882,39.980518,False,4.764778974552027,74828,,4,57
D037884,北京同仁堂连锁药店有限责任公司苏州街药店,B,12399.005,W701927,北京同仁堂商业投资集团有限公司,同仁堂连锁药店(苏州街药店),116.366202,39.939669,False,35.280545440065666,582838,,1,58
D040885,北京金象大药房医药连锁有限责任公司鲁谷金象大药房,A,34327.376,W219032,北京金象大药房医药连锁有限责任公司,北京市石景山区鲁谷路八厂宿舍楼底商,116.246361,39.90325,True,16.93250158077052,259617,,2,59
D040896,北京福仁堂医药经营部三分部,C,17779.002,,,北京市海淀区志新路10号,116.368057,39.993606,False,24.4332826538723,397126,,2,60
D040963,北京昌药医药连锁经营有限公司济善堂大药房,C,8244.278,,,北京市昌平区昌平镇东关路（北京手表厂单身公寓楼商业用房一层1号）,116.244599,40.226576,False,10.03225822595931,162390,,3,61
D040993,北京嘉事堂药业股份有限公司嘉事堂永安里利民药店,B,19599.786,W703139,北京嘉事堂连锁药店有限责任公司,嘉事堂药业(嘉事堂永安里利民药店),116.206882,39.980518,False,5.290531142365855,74828,,4,62
D041008,北京嘉事堂药业股份有限公司北京百朗园药店,A,25777.735,W703139,北京嘉事堂连锁药店有限责任公司,嘉事堂药业(百朗园药店),116.206882,39.980518,False,5.551612058292642,74828,,4,63
D041014,北京金象大药房医药连锁有限责任公司马各庄金象大药房,B,0,W219032,北京金象大药房医药连锁有限责任公司,金象大药房医药连锁(马各庄金象大药房),116.367551,39.941209,False,34.75656190087154,582838,,1,64
D041028,北京金象大药房医药连锁有限责任公司来广营金象大药房,B,0,W219032,北京金象大药房医药连锁有限责任公司,金象大药房医药连锁(来广营金象大药房),116.367551,39.941209,False,34.75656190087154,582838,,1,65
D041035,北京金象大药房医药连锁有限责任公司平房金象大药房,B,1991.358,W219032,北京金象大药房医药连锁有限责任公司,金象大药房医药连锁(平房金象大药房),116.367551,39.941209,False,34.8407169449773,582838,,1,66
D041055,北京金象大药房医药连锁有限责任公司科海金象大药房,C,10103.729,W219032,北京金象大药房医药连锁有限责任公司,北京市海淀区中关村大街18号中关村数字物流港地下一层,116.317257,39.983355,False,19.494677638722486,319749,,2,67
D041060,北京昌平医药药材总公司树仁草堂药店,C,9708.023,,,昌平医药药材总公司树仁草堂药店,116.238215,40.230056,False,11.2777779415411,182239,,3,68
D041073,北京嘉事堂药业股份有限公司嘉事堂呼家楼药店,B,15747.177,W703139,北京嘉事堂连锁药店有限责任公司,嘉事堂药业(嘉事堂呼家楼药店),116.206882,39.980518,False,5.127719392636651,74828,,4,69
D041084,北京金象大药房医药连锁有限责任公司德康金象大药房,B,39376.314,W219032,北京金象大药房医药连锁有限责任公司,金象大药房医药连锁(德康金象大药房),116.367551,39.941209,False,36.42060997328858,582838,,1,70
D041091,北京金象大药房医药连锁有限责任公司华远金象大药房,B,9245.735,W219032,北京金象大药房医药连锁有限责任公司,金象大药房医药连锁(华远金象大药房),116.367551,39.941209,False,35.14728784603819,582838,,1,71
D041093,北京嘉事堂药业股份有限公司嘉事堂垡头药店,B,9431.075,W703139,北京嘉事堂连锁药店有限责任公司,嘉事堂药业(嘉事堂垡头药店),116.206882,39.980518,False,4.860800113237127,74828,,4,72
D041098,北京金象大药房医药连锁有限责任公司月坛北街金象大药房,B,10827.414,W219032,北京金象大药房医药连锁有限责任公司,北京市西城区三里河东街9号,116.327847,39.931529,True,22.442343517011288,368666,,2,73
D041102,北京嘉事堂药业股份有限公司北京玉泉北路药店,B,2221.354,W703139,北京嘉事堂连锁药店有限责任公司,嘉事堂药业(玉泉北路药店),116.206882,39.980518,False,4.556116380455164,74828,,4,74
D041114,北京金象大药房医药连锁有限责任公司展览路金象大药房,B,14708.736,W219032,北京金象大药房医药连锁有限责任公司,金象大药房医药连锁(展览路金象大药房),116.344513,39.919276,True,27.24291853673962,446417,,1,75
D041135,北京牡丹苑金象大药房,B,13680.582,W219032,北京金象大药房医药连锁有限责任公司,北京市丰台区方庄芳城园三区19号楼1层8号,116.433958,39.867377,True,17.135154087072483,277647,,2,76
D041140,北京金象大药房医药连锁有限责任公司北洼路金象大药房,B,10036.003,W219032,北京金象大药房医药连锁有限责任公司,金象大药房医药连锁(北洼路金象大药房),116.344513,39.919276,False,27.045448241740207,446417,,1,77
D041171,北京市宣内药品有限责任公司真武庙金象大药房,A,12295.564,W219032,北京金象大药房医药连锁有限责任公司,北京市西城区真武庙四条六里,116.349273,39.901877,True,28.35262690133055,466736,,1,78
D041177,北京金象大药房医药连锁有限责任公司东内金象大药房,B,14632.209,W219032,北京金象大药房医药连锁有限责任公司,北京市东城区东直门内北小街22号一层,116.425938,39.943062,False,32.302135484788536,531310,,1,79
D041190,北京同仁堂连锁药店有限责任公司望京药店,B,23407.433,W701927,北京同仁堂商业投资集团有限公司,同仁堂连锁药店(望京药店),116.468942,39.985388,False,13.421017875032708,208471,,3,80
D041193,北京医保全新大药房有限责任公司花市店,B,13349.087,C700296,北京医保全新大药房有限责任公司,北京市东城区东花市北里西区13号楼1层,116.430704,39.897679,True,20.830217976591435,339845,,2,81
D041201,仁和药房网（北京）医药科技有限公司第二十七药房,B,54327.454,W219051,仁和药房网（北京）医药科技有限公司,北京市朝阳区百子湾16号百子园B区会所17号楼117号,116.485661,39.899877,False,17.681578535012434,258005,,2,82
D041208,北京金象大药房医药连锁有限责任公司定福庄金象大药房,B,15389.278,W219032,北京金象大药房医药连锁有限责任公司,金象大药房医药连锁(定福庄金象大药房),116.37286,39.93181,False,23.08160310138753,376153,,2,83
D041215,北京金象大药房医药连锁有限责任公司丰台云岗百货商场金象大药房,B,26638.241,W219032,北京金象大药房医药连锁有限责任公司,金象大药房医药连锁(丰台云岗百货商场金象大药房),116.367551,39.941209,False,35.88229737699128,582838,,1,84
D041244,北京同仁堂连锁药店有限责任公司华威药店,B,10314.956,W701927,北京同仁堂商业投资集团有限公司,同仁堂连锁药店(华威药店),116.451086,39.87424,False,27.876717842506427,460159,,1,85
D041247,北京金象大药房医药连锁有限责任公司车道沟金象大药房,B,9760.634,W219032,北京金象大药房医药连锁有限责任公司,金象大药房医药连锁(车道沟金象大药房),116.367551,39.941209,False,35.16904754371937,582838,,1,86
D041250,北京金象大药房医药连锁有限责任公司草桥欣园金象大药房,B,11914.442,W219032,北京金象大药房医药连锁有限责任公司,北京市丰台区草桥欣园三区2号楼1S06号,116.356762,39.845502,False,14.55013313355912,235550,,3,87
D041271,北京金象大药房医药连锁有限责任公司洋桥茸芝金象大药房,B,10196.086,W219032,北京金象大药房医药连锁有限责任公司,金象大药房医药连锁(洋桥茸芝金象大药房),116.367551,39.941209,False,35.18744980100608,582838,,1,88
D041277,北京同仁堂连锁药店有限责任公司古城药店,A,6365.614,W701927,北京同仁堂商业投资集团有限公司,北京市石景山区古城南路32号,116.189388,39.911149,True,18.779729260353356,310409,,2,89
D041285,北京阜石路金象大药房有限责任公司,C,31153.833,W219032,北京金象大药房医药连锁有限责任公司,北京市海淀区四季青田村畅茜园景宜里1-8号,116.249857,39.929769,False,18.397335315494605,286430,,2,90
D041294,北京福仁堂医药经营部二分部,B,8750.393,,,北京市海淀区清河龙岗路12号清缘西里11号楼-1,116.351891,40.029442,False,18.356393122986265,301620,,2,91
D041310,北京嘉事堂药业股份有限公司北京长安街药店,B,9184.221,W703139,北京嘉事堂连锁药店有限责任公司,嘉事堂药业(长安街药店),116.206882,39.980518,False,4.850368031583459,74828,,4,92
D041316,北京嘉事堂药业股份有限公司北京恩济庄药店,B,25891.533,W703139,北京嘉事堂连锁药店有限责任公司,嘉事堂药业(恩济庄药店),116.206882,39.980518,False,5.556421176346325,74828,,4,93
D046933,北京养生堂魏公村店,B,0,C700533,北京养生堂药店有限公司,养生堂魏公村店,116.68107,39.865632,False,4.7589174168040715,79803,,4,94
D046977,嘉事堂药业股份有限公司北京阎村药店,B,10848.064,W703139,北京嘉事堂连锁药店有限责任公司,北京市房山区阎村镇大董村路口,116.06272,39.714887,True,2.705781673489613,37686,,4,95
D047089,北京同仁堂连锁药店有限责任公司三营门药店,B,5750.697,W701927,北京同仁堂商业投资集团有限公司,北京市丰台区南苑北里二区六号楼,116.401488,39.807609,True,11.248055261789185,184545,,3,96
D047168,北京嘉事堂药业股份有限公司十渡药店,B,10387.965,W703139,北京嘉事堂连锁药店有限责任公司,嘉事堂药业(十渡药店),116.206882,39.980518,False,4.901238407182444,74828,,4,97
D047171,北京同仁堂连锁药店有限责任公司燕山药店,B,5785.828,W701927,北京同仁堂商业投资集团有限公司,北京市房山区燕山星城紫燕中路5号北侧,116.062822,39.711716,True,2.7821459080194093,42554,,4,98
D049623,北京市佳乐安泰医药有限公司,B,16695.017,,,北京市海淀区高粱桥路上园村3号,116.340704,39.954635,True,30.22444178976189,495007,,1,99
D049627,北京东盛百合药店,B,15090.92,,,北京市东城区民旺园30号-1,116.425951,39.952589,False,24.657029625826976,402783,,2,100
D049633,北京紫华曙光大药店有限公司,C,6283.386,,,北京市海淀区板井曙光花园乙18号楼115号,116.292998,39.942394,False,22.216440589017996,368098,,2,101
D049661,北京市康健堂医药有限公司,A,107837.918,,,北京市大兴区黄村镇清源西里1、2号楼底商,116.335631,39.743238,False,15.618031444466208,185480,,3,102
D070216,北京金象大药房医药连锁有限责任公司和平门金象大药房,A,13591.636,W219032,北京金象大药房医药连锁有限责任公司,北京市西城区北新华街29号楼一层103,116.383289,39.90374,True,25.98199289261856,426064,,2,103
D070219,北京金象大药房医药连锁有限责任公司地外金象大药房,A,12912.873,W219032,北京金象大药房医药连锁有限责任公司,北京市西城区地安门外大街139号,116.39614,39.93417,True,23.729283807799554,388769,,2,104
D070225,北京嘉事堂药业股份有限公司北京八角药店,B,12965.005,W703139,北京嘉事堂连锁药店有限责任公司,嘉事堂药业(八角药店),116.206882,39.980518,False,5.010144447614304,74828,,4,105
D070226,北京嘉事堂药业股份有限公司北京鲁谷药店,B,18932.033,W703139,北京嘉事堂连锁药店有限责任公司,嘉事堂药业(鲁谷药店),116.206882,39.980518,False,5.262311815069229,74828,,4,106
D070232,北京五洲全新医药有限公司沙子口医保全新大药房,C,7474.378,W219013,北京五洲全新医药有限公司,五洲全新(沙子口医保全新大药房),116.399812,39.865422,False,17.91121438761269,295059,,2,107
D070275,北京金象大药房医药连锁有限责任公司回龙观万润金象大药房,B,8584.025,W219032,北京金象大药房医药连锁有限责任公司,金象大药房医药连锁(回龙观万润金象大药房),116.367551,39.941209,False,35.11932389669547,582838,,1,108
D070296,北京聚善堂大药房有限公司,C,1166.569,,,北京市朝阳区白家庄北里5号楼一层-4号,116.461266,39.932346,False,12.937549505166826,216125,,3,109
D070358,北京安泰堂药品有限公司,B,8423.878,,,北京市海淀区清河朱房村北3号平房,116.327889,40.029414,False,19.859427551191093,327056,,2,110
D070367,北京百姓安康大药房,B,17962.206,,,北京市大兴区黄村镇西大街26号,116.333905,39.724884,True,9.425833291442595,145334,,3,111
D070368,北京宝记堂药店,C,0,,,北京市海淀区车公庄大街西路29号京颐商场二楼,116.315077,39.932752,False,19.25857899774288,322950,,2,112
D070374,北京本草堂医药经营部,C,7780.555,,,北京市海淀区阜成路40号2号楼1008室,116.298739,39.922409,False,28.168858773910475,466854,,1,113
D070382,北京诚泰堂药店,C,8245.036,,,诚泰堂药店,116.343116,39.989218,False,26.636113350944857,440822,,1,114
D070424,北京广德善大药房有限责任公司,B,9267.375,,,北京市海淀区北洼路西里24号,116.302614,39.934586,False,19.56369151238209,321499,,2,115
D070443,北京和寿春大药房有限公司,A,14709.717,,,北京市朝阳区白家庄路8号,116.454784,39.925827,True,25.11369285754684,410711,,2,116
D070473,北京佳益堂大药房,C,5499.727,,,佳益堂大药房,116.287298,39.9669,False,13.594694536106946,224074,,3,117
D070495,北京金药堂医药有限公司,C,3191.486,,,北京市西城区车公庄大街甲五号1层,116.350203,39.932769,False,24.38231508329542,406609,,2,118
D070506,北京君安堂大药房,C,1244.834,,,北京市丰台区角门路2号院,116.377835,39.845198,False,19.90292722424471,332873,,2,119
D070523,北京康之路医药有限责任公司,B,11248.603,,,北京市海淀区上地东里四区1号楼甲3号,116.312466,40.032344,False,14.901262573942457,241910,,3,120
D070530,北京良乡仁德益药店有限公司,B,6510.578,,,良乡仁德益药店,116.071905,39.646961,False,2.2179316212279487,32579,,4,121
D070551,北京千鹤堂大药房有限责任公司,B,2493.986,,,北京市海淀区骚子营200号,116.284466,40.00728,False,12.230339888814653,203325,,3,122
D070608,北京市仁生药店,B,907.704,,,北京市海淀区中关村南一条甲1号2号楼106室,116.331524,39.980932,False,20.97979082720688,351170,,2,123
D070622,北京寿春堂药店,A,15517.589,,,寿春堂药店,116.457393,39.988501,False,15.47918614512312,248576,,3,124
D070656,北京欣隆福医药销售有限公司,B,9940.559,,,北京市东城区美术馆东街7号,116.410566,39.926514,False,33.569533364813424,555888,,1,125
D070682,北京益人堂医药有限责任公司,B,3068.946,,,北京市丰台区望园西里10号楼一层,116.286935,39.866105,False,13.049848024207098,216660,,3,126
D070688,北京友谊仁博大药房有限责任公司,A,29218.369,,,北京市西城区东经路6号,116.393999,39.884452,False,21.647434553880583,342303,,2,127
D070691,北京元康堂大药房有限公司,A,6064.93,,,北京市朝阳区西大望路19号金港国际花园1幢乙单元102室,116.47808,39.897898,False,15.641998089971766,258005,,3,128
D071199,北京济仁康大药房有限责任公司,B,6857.556,,,北京市海淀区苏州街12号西屋国际公寓C座S-104,116.306649,39.980459,False,17.82181683063664,293997,,2,129
D071220,北京立水桥仁德药店,B,3752.836,,,北京市朝阳区立清路6号院4号楼2层11N-F2-16、11N-F1-18,116.409571,40.047801,False,10.237460388725374,169014,,3,130
D071225,北京龙鑫堂大药房,C,2735.784,,,北京市大兴区清源西里七中商业楼1幢1-3 1-7,116.33904,39.744541,False,10.374512618178388,172033,,3,131
D071257,北京市汇仁堂荣丰药店有限责任公司,B,13576.641,,,北京市西城区广安门外大街305号八区15、16、17号楼商业102室,116.336568,39.893244,True,35.188027399253286,580452,,1,132
D071279,北京万年康大药房,A,5068.942,,,万年康大药房,116.316464,39.850605,False,12.253047352644064,201881,,3,133
D071282,北京旺和堂药店,A,8117.811,,,北京市丰台区新华街七里十号楼一层,116.286152,39.842392,False,17.420669509955935,286377,,2,134
D071292,北京新街口西里药店,B,9872.49,,,新街口西里药店,116.36685,39.945617,False,35.17377459260435,582838,,1,135
D071331,北京永兴堂药店,B,3024.14,,,北京市大兴区黄村镇滨河西里1幢1层102,116.338402,39.750917,False,7.780484191937211,128329,,4,136
D071422,北京倚林萃草大药房有限公司,B,12995.663,,,北京市朝阳区林萃路9号院3号楼1层06号,116.37342,40.01741,False,9.864697379355361,156213,,3,137
D071424,北京益延堂大药房有限责任公司分店,C,7606.225,,,北京市朝阳区石佛营西里12号楼B座一层,116.49989,39.932058,False,12.949688940129839,211765,,3,138
D072257,北京嘉致堂医药有限公司,C,8277.08,,,北京市丰台区镇国寺北街4号院13号楼一层1-2号,116.364623,39.844655,True,17.32620250316621,284680,,2,139
D075596,北京福庆余堂大药房有限责任公司,C,0,,,北京市朝阳区孙河乡沙子营村17号,116.468926,40.079188,False,2.9009818625273196,48647,,4,140
D075720,北京创世兴和堂医药有限责任公司,B,31192.693,,,北京市平谷区平谷镇新平北路30号院6号楼商业5、商业6,117.122521,40.145246,False,9.964024072965094,144983,,3,141
D075728,北京市博龙堂医药有限责任公司,B,1252.116,,,北京市西城区椿树园2号楼1层,116.377399,39.894921,False,31.217761936136384,522608,,1,142
D075754,北京百草厅药品有限公司,C,1679.561,,,北京市昌平区东小口镇魏窑村10号,116.386678,40.08628,False,5.458490650513788,90344,,4,143
D075760,北京欣仁乐医药有限责任公司,B,5823.571,,,北京市西城区永安路22号,116.395979,39.886241,False,20.658767394316435,342303,,2,144
D081920,北京安济堂医药有限公司,C,2643.29,,,北京市昌平区昌平镇政府街西路17-3号、17-4号,116.221766,40.221402,False,10.433218790378026,173083,,3,145
D081930,北京济世安康医药科技有限责任公司,C,6488.824,,,济世安康医药科技,116.270745,39.894124,False,20.893749040152375,345772,,2,146
D081933,北京景弘康泰海馨大药房有限公司,B,16476.396,,,北京市海淀区海淀南路26-1号,116.308783,39.975517,False,24.873071603268155,405424,,2,147
D081944,北京瑞宏堂大药房,C,5752.866,,,瑞宏堂大药房,116.275373,39.871217,False,19.199593479139452,317884,,2,148
D081948,北京市同德祥大药房有限责任公司,C,3131.609,,,北京市崇文区崇文门西大街4号楼8门首层,116.415544,39.900439,False,21.08510366711611,351360,,2,149
D084398,北京普安法玛西医药有限公司关东店,A,35872.564,D047005,北京普安法玛西医药有限公司,普安法玛西(关东店),116.47126,39.911389,False,22.03246328773401,344044,,2,150
D084408,北京金泰正缘大药房有限公司,B,4813.669,,,北京市丰台区果园3-4号楼,116.394566,39.85664,False,24.965981317412236,415247,,2,151
D087160,北京养生堂药店有限公司北苑药店,C,38148.697,C700533,北京养生堂药店有限公司,养生堂药店(北苑药店),116.62956,39.905211,False,11.502354071672993,165850,,3,152
D089085,北京西子大药房有限公司,A,2827.132,,,北京市朝阳区石佛营西里23号楼一层,116.498497,39.934873,False,12.7477238579093,211765,,3,153
D089089,北京普安法玛西医药有限公司万泉庄药店,A,18363.486,D047005,北京普安法玛西医药有限公司,普安法玛西(万泉庄药店),116.303218,39.971099,False,23.85210854472919,386966,,2,154
D089106,北京全新同梦堂药店,B,17139.584,,,全新同梦堂药店,116.191393,39.932677,False,16.525300790203627,264969,,3,155
D089117,北京开心人大药房有限公司劲松店,A,81666.631,D070507,北京开心人大药房有限公司,北京市朝阳区劲松南街11号楼地下一层西侧01室,116.465229,39.886148,False,20.643944359740715,288307,,2,156
D089119,北京开心人大药房有限公司延静里店,A,8008.573,D070507,北京开心人大药房有限公司,开心人大药房(延静里店),116.484968,39.924743,False,20.498856937279037,338073,,2,157
D089132,北京凯尔康大药房有限责任公司天通东分公司,C,16573.013,D070508,北京凯尔康大药房有限责任公司,北京市昌平区东小口镇天通苑三区12号楼1门102号,116.421759,40.060239,False,13.812670165159197,219882,,3,158
D089141,北京市京芝堂大药房有限公司上地店,B,10781.569,D202123,新龙药业集团京芝堂北京医药连锁有限公司,市京芝堂大药房(上地店),116.308722,40.036271,False,19.27769362048548,315630,,2,159
D089161,北京盛仁堂医药有限公司第十九分店,A,6592.25,W219976,北京盛仁堂医药有限公司,北京市通州区梨园镇怡乐园二区1号楼132号,116.638513,39.887897,False,10.80458498197612,176512,,3,160
D100151,北京兴寿堂大药房有限公司,B,14224.019,,,北京市朝阳区慧忠里123号楼,116.406606,39.998936,False,10.295100509929437,162560,,3,161
D103319,北京惠民安康大药房,C,2252.877,,,惠民安康大药房,116.196861,39.808528,False,5.636930810033557,92930,,4,162
D103321,北京元亨利康大药房有限公司,B,3827.485,,,元亨利康大药房,116.372307,39.861336,False,25.37000444969903,422721,,2,163
D103391,北京全新同旭堂大药房,B,8477.288,,,全新同旭堂大药房,116.128459,39.938514,False,7.976287968913085,127748,,4,164
D103418,北京济民同康大药房,B,1829.502,,,济民同康大药房,116.324297,39.875887,False,24.96796239789903,417395,,2,165
D103420,北京忠膳堂大药房有限公司,C,7380.092,,,北京市丰台区花乡黄土岗宜兰园小区三期33号楼底商3号,116.338137,39.82695,False,13.143720667138195,215179,,3,166
D103515,北京明德康大药房,C,4502.87,,,明德康大药房,116.375113,40.085046,False,8.58201118077984,140722,,4,167
D103560,北京开心人大药房有限公司青年路店,A,60557.215,D070507,北京开心人大药房有限公司,北京市朝阳区甘露园中里1号楼C室,116.517707,39.920927,True,17.640898027425987,252908,,2,168
D103980,北京百济堂药品超市有限责任公司三里河店,A,53943.279,D070363,北京百济堂药品超市有限责任公司,百济堂药品超市(三里河店),116.344708,39.915942,False,28.900975348540577,446417,,1,169
D105041,北京天天好大药房有限公司,B,67102.378,,,北京市西城区白纸坊西街8号楼,116.36144,39.877735,True,33.141167109310125,508196,,1,170
D105042,北京百姓阳光大药房有限公司菜市口店,B,79087.426,C700294,北京百姓阳光大药房有限公司,百姓阳光大药房(菜市口店),116.373819,39.882189,False,29.54071038600195,439326,,1,171
D106298,北京友康堂大药房有限责任公司,C,4510.431,,,北京市海淀区中关村南大街1号友谊宾馆65111A房,116.319262,39.963677,False,26.255200234897146,437081,,2,172
D106768,北京西子大药房有限公司双桥店,B,2713.694,,,北京市朝阳区双桥西路广播设备厂门外,116.576933,39.894911,False,11.142491052305179,184927,,3,173
D107001,北京鸿业康健医药有限公司,C,4283.107,,,北京市丰台区鸿业兴园3号楼01层109号,116.30615,39.836974,False,15.370564049595457,254716,,3,174
D107006,北京学院路金象大药房有限责任公司,B,17334.933,W219032,北京金象大药房医药连锁有限责任公司,北京市海淀区建清园3号楼,116.347785,40.014983,False,13.817735843725272,219427,,3,175
D107785,北京德必康医药有限公司,C,75010.314,,,北京市丰台区大红门路警备东路6号2区东门,116.420289,39.788473,False,10.942372820190087,130337,,3,176
D144117,北京嘉佳堂大药房,B,1307.771,,,嘉佳堂大药房,116.530647,39.843046,False,11.470394945559656,191422,,3,177
D144121,北京同仁堂连锁药店有限责任公司工大路药店,A,4497.9,W701927,北京同仁堂商业投资集团有限公司,北京市朝阳区东四环南路9号C座3020号,116.48589,39.877969,False,19.633703003433936,326053,,2,178
D144131,北京盛同升大药房,B,39.508,,,盛同升大药房,116.602019,39.948631,False,3.1502489984990665,52799,,4,179
D144134,北京盛仁堂医药有限公司第十六分店,B,11387.7,W219976,北京盛仁堂医药有限公司,北京市通州区马驹桥镇商业街23号,116.557318,39.758592,False,4.335525692462807,64633,,4,180
D144136,北京盛仁堂医药有限公司第二十四分店,B,6993.09,W219976,北京盛仁堂医药有限公司,盛仁堂(第二十四分店),116.71722,40.040449,False,1.157111010452411,14448,,4,181
D144184,北京同仁堂连锁药店有限责任公司中关村北大街药店,B,10732.947,W701927,北京同仁堂商业投资集团有限公司,同仁堂连锁药店(中关村北大街药店),116.366202,39.939669,True,35.21013761561986,582838,,1,182
D145145,北京万民阳光大药房有限公司双井分店,C,11264.687,D089098,北京万民阳光大药房有限公司,北京市朝阳区东三环南路甲5号1层5-5内104号、2层甲5-8内201号,116.460861,39.889918,False,21.887746575266604,359056,,2,183
D145685,北京佳友康大药房,C,5744.094,,,佳友康大药房,116.538175,39.859358,False,9.632250088335875,157454,,3,184
D145687,北京京海康佰馨医药有限责任公司第一分公司,C,19143.762,D201169,北京京海康佰馨医药有限责任公司,北京市朝阳区利泽西园114号楼0109、0110、0111室,116.463874,40.013005,False,12.300775018858902,192707,,3,185
D145688,北京丽佳堂医药中心,B,15084.13,,,丽佳堂医药中心,116.42259,39.999073,False,10.506234156465897,165491,,3,186
D145690,北京同仁堂润丰药店霄云路分店,B,11355.675,W701927,北京同仁堂商业投资集团有限公司,同仁堂润丰药店霄云路分店,116.396276,39.895864,False,27.303672853033817,449812,,1,187
D146567,北京金康堂大药房有限公司,C,0,,,金康堂大药房,116.359681,39.932165,False,22.43125024226034,376153,,2,188
D147034,北京德威治医药连锁有限责任公司肖两河大药房,A,0,W219989,北京德威治医药连锁有限责任公司,北京市怀柔区庙城镇肖两河村西100米,116.65901,40.280457,True,2.642352176466905,44310,,4,189
D147039,北京市康中福大药房有限公司,B,15884.821,,,北京市东城区朝阳门南小街8号楼首层102室,116.426698,39.919792,True,21.30549487211043,346018,,2,190
D147048,北京五洲全新医药有限公司农光里长春堂药店,C,10240.058,W219013,北京五洲全新医药有限公司,北京市朝阳区农光里22号,116.46845,39.880288,False,20.23828192309389,332122,,2,191
D147830,北京好得快医药有限公司第二十一大药房,B,15961.529,C700295,北京好得快医药有限公司,北京市朝阳区左三区7号楼院10号楼一层,116.601144,39.948573,False,3.823115645032656,52799,,4,192
D147850,北京信诺康健大药房有限责任公司,B,-109.82,,,北京市丰台区东铁匠营顺一条8号,116.42909,39.856879,False,21.070309124376305,353409,,2,193
D147868,北京紫晶百姓大药房有限公司,B,8456.453,,,紫晶百姓大药房,116.297229,40.147756,False,2.9276859190180433,43102,,4,194
D147874,北京市美廉康泽明大药房,C,0,,,北京市朝阳区十八里店乡小武基村506号,116.487659,39.860408,False,17.063953748401083,286148,,2,195
D147875,北京同仁堂连锁药店有限责任公司十里河药店,A,3203.085,W701927,北京同仁堂商业投资集团有限公司,北京市朝阳区东三环南路102号113室,116.459563,39.866226,True,15.76072244573667,262024,,3,196
D150219,北京福云堂医药有限责任公司,C,-93.737,,,北京市丰台区正阳大街4号-69,116.291375,39.849582,False,16.369557892628627,274570,,3,197
D150233,北京大安普康大药房,B,2869.936,,,北京市西城区茶源路18号院2-5号,116.325063,39.878624,False,25.011931271983514,417395,,2,198
D152222,北京绿港爱心大药房,C,0,,,绿港爱心大药房,116.663186,40.134867,False,3.866445228291237,64837,,4,199
D152754,北京京海康佰馨医药有限责任公司第二分公司,C,10952.771,D201169,北京京海康佰馨医药有限责任公司,北京市朝阳区百子湾路甲16号2号楼S-106号,116.481491,39.900089,False,15.848558876599254,258005,,3,200
D153215,北京康友顺大药房,B,0,,,康友顺大药房,116.598628,39.953476,False,3.6279119693007695,60837,,4,201
D153220,北京德爱心大药房,C,3070.553,,,北京市朝阳区黄杉木店路188号院7号楼商业7-3,116.5284,39.919389,False,11.300691914741053,187327,,3,202
D162909,北京六里桥万芝堂医药有限责任公司,C,54467.693,,,六里桥万芝堂医药,116.310604,39.884676,False,22.931300952129263,345939,,2,203
D162912,北京宝瑞堂医药有限公司白塔寺大药房,C,6041.114,,,北京市西城区宫门口西岔1号,116.362099,39.926518,True,32.36336574428847,538425,,1,204
D162917,新龙药业集团京芝堂(北京)医药连锁有限公司海淀厢黄旗店,B,12275.821,D202123,新龙药业集团京芝堂北京医药连锁有限公司,京芝堂医药连锁(海淀厢黄旗店),116.300991,39.988342,False,16.738264145838492,271987,,3,205
D162919,北京惠好大药房有限公司,C,1356.788,,,北京市海淀区长春桥路5号4号楼103,116.304151,39.96093,False,24.989311330840412,418088,,2,206
D169577,仁和药房网（北京）医药科技有限公司第七药房,A,54176.667,W219051,仁和药房网（北京）医药科技有限公司,北京市西城区西便门西里15号,116.352637,39.899313,False,30.122527677666532,466736,,1,207
D169578,北京同仁堂远大路药店有限公司东三环店,C,3106.35,W701927,北京同仁堂商业投资集团有限公司,同仁堂远大路药店(东三环店),116.286134,39.957329,False,22.05725191522239,367680,,2,208
D169587,北京市桂芸堂药店,B,6872.432,,,市桂芸堂药店,116.388811,39.893687,False,29.162734057911816,484164,,1,209
D170183,北京市京芝堂大药房有限公司交道口店,B,8144.037,D202123,新龙药业集团京芝堂北京医药连锁有限公司,市京芝堂大药房(交道口店),116.410152,39.940608,False,34.2550699110319,568657,,1,210
D170184,北京聚福堂大药房,C,0,,,北京市西城区鼓楼西大街114号,116.389306,39.943159,False,29.82745100377777,500181,,1,211
D170395,北京京海康佰馨医药有限责任公司第九分公司,C,17502.132,D201169,北京京海康佰馨医药有限责任公司,北京市朝阳区八里庄北里304 号楼一层,116.501694,39.926674,False,20.62699500819424,333494,,2,212
D170396,北京五洲全新医药有限公司弘善长春堂药店,B,11689.025,W219013,北京五洲全新医药有限公司,北京市朝阳区弘善家园302号楼4号,116.452376,39.870908,True,20.609847224024268,337326,,2,213
D171584,北京嘉铭金象大药房有限公司,C,21729.082,W219032,北京金象大药房医药连锁有限责任公司,嘉铭金象大药房,116.426847,40.001898,False,10.985391083830581,168817,,3,214
D171670,北京国际生物制品研究所有限公司,B,0,,,北京市海淀区中关村大街42号,116.320875,39.969617,False,22.726912216779027,381111,,2,215
D171685,北京金象大药房医药连锁有限责任公司上园金象大药房,B,15252.44,W219032,北京金象大药房医药连锁有限责任公司,北京市海淀区高梁桥路上园村甲4号写字楼1层1号,116.342177,39.947801,True,31.807389888644018,522574,,1,216
D171696,北京颐寿百姓德内大药房有限责任公司,A,92439.867,C700535,叮当智慧药房(北京)有限公司,北京市西城区德胜门内大街245号,116.379378,39.937699,False,34.53395253896456,513596,,1,217
D172859,北京养生堂药店有限公司京客隆管庄店,A,36133.395,C700533,北京养生堂药店有限公司,养生堂药店(京客隆管庄店),116.593264,39.91678,False,11.388622793296705,165371,,3,218
D172868,北京医保中洋大药房有限公司田村分店,C,2742.496,W219991,北京医保中洋大药房有限公司,北京市海淀区田村路圣华园6号楼底商22号,116.242456,39.929409,False,20.35288102498822,339357,,2,219
D172871,北京正济堂药品超市有限责任公司杜家坎店,C,5929.59,D161904,北京正济堂药品连锁超市有限责任公司,正济堂药品超市(杜家坎店),116.209103,39.838456,False,8.320046117798405,135318,,4,220
D172872,北京正济堂药品超市有限责任公司亚运村店,C,14528.214,D161904,北京正济堂药品连锁超市有限责任公司,正济堂药品超市(亚运村店),116.408362,40.008052,False,11.64475584628388,184977,,3,221
D172874,北京正济堂药品超市有限责任公司燕迎城店,C,10282.719,D161904,北京正济堂药品连锁超市有限责任公司,正济堂药品超市(燕迎城店),116.408362,40.008052,False,11.465340683879237,184977,,3,222
D174810,北京和瑞堂大药房,C,1643.3,,,和瑞堂大药房,116.645525,40.118961,False,5.795258050573208,96017,,4,223
D180889,北京京海康佰馨医药有限责任公司第十分公司,C,9833.028,D201169,北京京海康佰馨医药有限责任公司,北京市朝阳区建国门外光华里1号楼一层,116.454994,39.913255,False,22.847570497911125,376166,,2,224
D184197,北京百草厅科技发展有限公司,C,24244.806,,,北京市朝阳区来广营立水桥甲三号院,116.41642,40.050989,False,11.103453665255213,169014,,3,225
D184211,北京一品康大药房有限公司,C,2453.833,,,北京市海淀区蓝靛厂路25号楼综合楼103室,116.278056,39.966517,False,13.46597466559071,224074,,3,226
D184217,北京宝瑞堂医药有限公司大红门大药房,C,0,D106309,北京恒创佳益医药有限公司,北京市丰台区大红门西里1-17号1-3号楼,116.401363,39.841275,False,22.64903110771864,379805,,2,227
D184223,北京高远百康大药房有限公司青年路分店,A,27468.561,D070415,北京高远百康大药房有限公司,北京市朝阳区雅成一里10号楼103室,116.523699,39.924081,True,14.481178054145653,223371,,3,228
D184224,北京高远百康大药房有限公司延静里分店,A,12817.526,D070415,北京高远百康大药房有限公司,北京市朝阳区延静西里10号楼院166、168号,116.482148,39.920285,True,17.076736170157012,277279,,2,229
D184507,北京国大药房连锁有限公司南湖中园连锁店,B,14494.277,W219036,北京国大药房连锁有限公司,国大药房连锁(南湖中园连锁店),116.381269,39.904059,False,26.020138616876412,426064,,2,230
D184514,北京盛仁堂医药有限公司第二十三分店,A,11994.283,W219976,北京盛仁堂医药有限公司,北京市通州区张家湾镇光华路66-7,116.721386,39.850311,False,3.870735587241218,56409,,4,231
D197525,北京鑫福瑞堂药店,C,4321.874,,,北京市朝阳区小红门乡鸿博家园A区13号楼商业用房一层西侧-2号,116.470417,39.83061,False,8.671922369567463,142358,,4,232
D198510,北京普安法玛西医药有限公司姚家园路药店,A,5310.758,D047005,北京普安法玛西医药有限公司,普安法玛西(姚家园路药店),116.521511,39.937476,False,14.586938270228172,240847,,3,233
D200895,北京同宇堂大药房,C,3317.283,,,同宇堂大药房,116.488777,39.805183,False,7.252534987730781,119268,,4,234
D200908,北京养生堂药店有限公司石景山药店,C,17502.013,C700533,北京养生堂药店有限公司,北京市石景山区石景山路乙18号院万达广场4号楼B139,116.225259,39.906334,False,17.82821961818909,286561,,2,235
D200911,北京阳光三六五药品有限责任公司,C,24642.715,,,北京市丰台区大成路28号院3号楼－1至1层123,116.256795,39.886674,False,12.905690794097577,198954,,3,236
D200951,北京鑫黄浦医药有限公司团结湖药店,C,0,D070659,北京鑫黄浦医药有限公司,北京市朝阳区团结湖北路水利局宿舍3幢号平房,116.470557,39.932756,False,12.888250149828703,216125,,3,237
D201012,北京健惠康大药房,C,5177.354,,,健惠康大药房,116.510952,39.860703,False,13.144376247945045,216751,,3,238
D201040,新龙药业集团京芝堂北京医药连锁有限公司牛栏山店,B,0,D202123,新龙药业集团京芝堂北京医药连锁有限公司,京芝堂医药连锁(牛栏山店),116.658985,40.212631,False,1.767352549175122,29637,,4,239
D201053,北京玉逸恒康大药房有限公司,C,109678.021,,,北京市顺义区杨镇地区顺平路杨镇段157号,116.814785,40.149628,False,6.341951214849109,28624,,4,240
D201065,北京永辉万芝堂医药有限责任公司,C,6265.611,,,永辉万芝堂医药,116.347734,39.761862,False,7.463182579772916,120711,,4,241
D201099,北京养生堂药店有限公司回龙观西大街药店,B,4373.121,C700533,北京养生堂药店有限公司,养生堂药店(回龙观西大街药店),116.329788,40.078537,False,14.584644065560521,241473,,3,242
D201158,北京同仁堂蓝色港湾大药房有限公司,C,5202.238,W701927,北京同仁堂商业投资集团有限公司,北京市朝阳区朝阳公园路6号院4栋SA-58号商铺,116.4769,39.950105,False,9.715438851318417,159233,,3,243
D201172,北京鹏康愈宁大药房,C,6832.135,,,鹏康愈宁大药房,116.325215,39.772953,False,8.792497216390856,142601,,3,244
D201203,北京德威治医药连锁有限责任公司十八里店大药房,B,4308.565,W219989,北京德威治医药连锁有限责任公司,北京市朝阳区十八里店乡吕家营村源景苑配套公建1层106,116.478029,39.844263,True,13.858325279585493,229339,,3,245
D201263,北京颐寿百姓大药房有限责任公司西环南路店,C,29961.784,C700535,叮当智慧药房(北京)有限公司,北京市昌平区昌平镇西环路南端钰阳商业楼1层C座,116.227109,40.218806,False,12.650427147512506,190904,,3,246
D201299,北京瑞众堂医药有限责任公司,C,2878.243,,,北京市顺义区南法信镇焦各庄村焦东街35号,116.608585,40.134143,False,4.053676792299416,65937,,4,247
D201319,北京乐万康医药有限公司,C,359.825,,,北京市昌平区马池口镇土楼村南274号,116.125848,40.184533,False,1.4461672712652551,23996,,4,248
D201330,北京高远百康大药房有限公司大钟寺分店,A,-386.893,D070415,北京高远百康大药房有限公司,北京市海淀区学院南路明光市场北（金五星四道口百货城二厅）,116.347733,39.961794,False,30.03788635203502,503984,,1,249
D201332,北京好利索医药有限责任公司,C,1676.229,,,北京市房山区长阳镇大宁山庄商业会所三区甲1号203,116.217064,39.766231,False,2.714740294858712,44336,,4,250
D201335,北京盛明堂药店,C,0,,,盛明堂药店,116.300327,40.15402,False,2.9769547055157832,49921,,4,251
D201360,北京同德堂药店小屯分店,C,6166.782,,,同德堂药店小屯分店,116.2511,39.875548,False,17.22533290973772,284484,,2,252
D201419,北京露润堂大药房有限公司泽川堂药店,C,653.134,,,北京市丰台区吴家村2号1幢平房,116.245118,39.889388,False,16.60930065852153,278061,,3,253
D201465,北京盛仁堂医药有限公司第十八分店,C,18452.305,W219976,北京盛仁堂医药有限公司,北京市通州区潞城镇南刘庄村,116.728978,39.915849,False,2.741076861151956,32889,,4,254
D201467,北京利豪康健药房有限公司,C,4602.922,,,北京市朝阳区望京A5区3号院4号楼北侧中区2号,116.470231,39.99193,False,16.835792886668955,279060,,2,255
D201472,北京天合堂医药有限公司,C,18312.63,,,北京市昌平区沙河镇巩华大街28号,116.267339,40.124139,False,7.034795804382228,104990,,4,256
D201484,北京嘉事堂药业股份有限公司北京看丹桥药店,C,9440.763,W703139,北京嘉事堂连锁药店有限责任公司,嘉事堂药业(看丹桥药店),116.206882,39.980518,False,4.861209529357832,74828,,4,257
D201530,北京普安法玛西医药有限公司海淀大药房,A,12550.035,D047005,北京普安法玛西医药有限公司,北京市海淀区海淀大街44号蓝格赛商业楼一层6号,116.3054,39.983705,False,14.663819481409666,237006,,3,258
D201544,北京姚家园利民大药房,C,443.853,,,姚家园利民大药房,116.519358,39.949967,False,9.160365535488019,153297,,3,259
D201684,老百姓大药房北京有限公司安乐林店,B,10483.596,W703244,老百姓大药房（北京）有限公司,老百姓大药房(安乐林店),116.406414,39.864971,False,18.038384325671966,295059,,2,260
D201715,北京金安堂药房有限公司,C,1711.21,,,北京市海淀区清河毛纺路26号燕语清园2号楼103号底商,116.341272,40.035964,False,17.509156819266185,292401,,2,261
D201745,北京健益堂大药房有限责任公司,C,6308.801,,,北京市石景山区石景山路24号南楼一层2号,116.214415,39.906104,True,16.73506620553589,276162,,3,262
D201780,北京西潞仁人康大药房,C,1342.938,,,北京市房山区西潞街道西潞园小区文化中心二层,116.131929,39.734226,False,8.555573483065904,142518,,4,263
D201783,北京兴华阳光药店,C,3775.062,,,北京市大兴区黄村镇富强路105号底商,116.333494,39.737619,False,8.458524117059651,139167,,4,264
D201881,北京养生堂药店有限公司五孔桥药店,A,20195.362,C700533,北京养生堂药店有限公司,北京市海淀区亮甲店危改小区（南侧）3号楼地上部分及地下一层,116.354266,39.946633,False,33.72256644025908,551187,,1,265
D201918,北京海王星辰通达药店有限公司,C,11276.18,C700792,北京海王星辰药房有限公司（总部）,海王星辰通达药店,116.4686,39.893687,False,24.157637696953778,397112,,2,266
D201955,北京市华瑞堂大药房,C,4948.022,,,北京市大兴区青云店镇大东园38号楼－5,116.529792,39.67551,True,1.4311099292028089,20492,,4,267
D202032,北京养生堂药店有限公司香槟路店,C,7393.347,C700533,北京养生堂药店有限公司,养生堂药店(香槟路店),116.254064,40.221192,False,10.137211295672385,164753,,3,268
D202050,北京玉君康大药房有限公司,C,12660.301,,,北京市朝阳区酒仙桥路13号52幢2层,116.49284,39.975659,False,12.272054950243286,196820,,3,269
D202124,北京国大药房连锁有限公司长辛店连锁店,B,0,W219036,北京国大药房连锁有限公司,北京市丰台区长云路2号院19号楼一层03号,116.177073,39.821139,False,7.262443236538525,121785,,4,270
D202241,北京庚连龙大药房,C,0,,,庚连龙大药房,116.538296,39.935107,False,9.577408515041013,160605,,3,271
D202299,北京念安堂药店,C,10138.814,,,北京市昌平区良庄街2号楼-1层04号,116.35793,40.085596,False,11.122271378511082,179326,,3,272
D202338,老百姓大药房北京有限公司车公庄店,B,10278.644,W703244,老百姓大药房（北京）有限公司,老百姓大药房(车公庄店),116.346549,39.935061,False,24.6818192880012,406609,,2,273
D202342,北京养生堂药店有限公司万寿路药店,C,38426.475,C700533,北京养生堂药店有限公司,北京市海淀区万寿路14号1层,116.295311,39.909866,False,24.619825854240244,385622,,2,274
D202344,北京宝瑞堂医药有限公司横六条大药房,C,13186.767,D106309,北京恒创佳益医药有限公司,宝瑞堂(横六条大药房),116.425126,39.85673,False,23.476265585780958,384332,,2,275
D202378,北京养生堂药店有限公司东花市药店,C,21229.424,C700533,北京养生堂药店有限公司,北京市东城区东花市南里三区No.FGY-111B,116.432471,39.894317,False,28.38370341037288,460926,,1,276
D202384,北京世安堂吕营医药有限责任公司,C,403.401,,,北京市朝阳区十八里店乡吕家营村20号3-5,116.478029,39.844263,False,13.693292548825768,229339,,3,277
D202424,北京养生堂药店有限公司中关村南路药店,C,66006.634,C700533,北京养生堂药店有限公司,北京市海淀区中关村南路21号,116.320137,39.98104,True,21.85714156329813,319749,,2,278
D202515,北京京海康佰馨医药有限责任公司第四分公司,C,4126.395,D201169,北京京海康佰馨医药有限责任公司,北京市朝阳区南湖西里小区北侧A1、A2、A3、A4号,116.455024,39.992822,False,13.348335341936487,220916,,3,279
D202662,北京金象大药房医药连锁有限责任公司阜外金象大药房,A,11733.549,W219032,北京金象大药房医药连锁有限责任公司,北京市西城区阜外大街37号国侨宾馆-15-16-17,116.339295,39.923522,True,29.581294951784844,487738,,1,280
D202682,北京长店迎松堂医药有限责任公司,C,6304.639,,,长店迎松堂医药,116.55567,40.010081,False,4.438739351183265,69966,,4,281
D202769,北京安定门天保堂医药有限公司,C,2777.109,D106309,北京恒创佳益医药有限公司,北京市东城区安外西河沿17号楼,116.403187,39.951364,False,24.049820289710798,401327,,2,282
D202875,北京祥尔泰康医药有限公司,C,2829.428,,,北京市海淀区杏石口路76号,116.228273,39.952281,False,5.884085993027381,96666,,4,283
D202909,北京盛仁堂医药有限公司第十七分店,C,8839.873,W219976,北京盛仁堂医药有限公司,北京市通州区漷县镇长陵营三区10号,116.796937,39.77915,False,1.4397581994420656,17879,,4,284
D202933,北京鑫黄浦医药有限公司林萃路药店,C,18700.171,D070659,北京鑫黄浦医药有限公司,鑫黄浦(林萃路药店),116.375462,40.004543,False,15.575278613327008,247932,,3,285
D202962,北京市草和堂大药房有限公司,C,0,,,北京市朝阳区东坝乡东岗子村76号丙,116.563225,39.974747,False,6.869638592295972,115198,,4,286
D203142,北京福庆堂医药有限责任公司菜户营药店,C,5212.75,,,北京市丰台区菜户营三路居88号院11号楼12门,116.339758,39.870317,False,21.986749532031276,365005,,2,287
D203411,北京京海康佰馨医药有限责任公司第五分公司,C,23502.402,D201169,北京京海康佰馨医药有限责任公司,北京市朝阳区大屯里115号楼1层103号,116.415658,40.006719,False,14.21737913018662,221758,,3,288
D203611,北京德威治医药连锁有限责任公司劲松大药房,A,9581.879,W219989,北京德威治医药连锁有限责任公司,北京市朝阳区农光里109号楼一层,116.464756,39.884083,False,17.59763350859654,288307,,2,289
D203761,北京德威治医药连锁有限责任公司南沙滩大药房,B,61652.493,W219989,北京德威治医药连锁有限责任公司,北京市朝阳区南沙滩（粮店）,116.371417,40.000446,True,16.669840266379794,235848,,3,290
D203779,北京普惠堂大药房有限公司,C,13042.795,,,北京市朝阳区南十里居30号楼（底商）,116.498474,39.955644,False,13.72705181389836,220948,,3,291
D264190,北京同仁堂亮马河药店有限公司,C,0,W701927,北京同仁堂商业投资集团有限公司,北京市朝阳区麦子店街36号1层1-6,116.468086,39.948091,False,10.178393061067496,170683,,3,292
D264435,北京明仁康大药房有限公司第六分店,C,0,,,北京市大兴区黄村镇乐园路22号院37号楼1层103,116.312924,39.763744,False,7.5173160237698395,126059,,4,293
D267152,北京好得快医药有限公司第一大药房,B,29250.502,C700295,北京好得快医药有限公司,北京市海淀区西直门北大街甲1号1层,116.354434,39.956973,True,31.87948397667689,513863,,1,294
D267226,北京朝阳区安贞西里金象大药房有限责任公司,B,6006.945,W219032,北京金象大药房医药连锁有限责任公司,朝阳区安贞西里金象大药房,116.398772,39.974246,False,25.534622819147412,423937,,2,295
D267249,思方隆（北京）医药有限公司六分店,A,4067.664,C700534,思方隆(北京)医药有限公司,北京市朝阳区金台里甲15号二层5柜2组,116.47762,39.917238,False,16.150706321509187,267951,,3,296
D267291,北京普安法玛西医药有限公司复兴门店,B,5254,D047005,北京普安法玛西医药有限公司,普安法玛西(复兴门店),116.47126,39.911389,False,20.73851885188921,344044,,2,297
D267309,北京国康堂金象大药房有限责任公司,B,6193.873,W219032,北京金象大药房医药连锁有限责任公司,北京市丰台区东高地（三角地）47号楼底商,116.422162,39.807039,False,9.746730743388321,159055,,3,298
D267645,北京德威治大药房有限公司土城店,B,14369.768,W219989,北京德威治医药连锁有限责任公司,德威治大药房(土城店),116.432145,39.958829,False,27.13592353453146,444863,,1,299
D267663,北京德威治大药房有限公司双井店,B,11842.983,W219989,北京德威治医药连锁有限责任公司,德威治大药房(双井店),116.374183,39.997878,False,14.564883994862424,235848,,3,300
D268090,北京百合安康医药有限公司,C,2907.663,,,百合安康,116.682159,40.664071,False,0.1581214997693506,591,,4,301
D268571,北京医保全新大药房有限责任公司天坛店,B,9650.149,C700296,北京医保全新大药房有限责任公司,北京市东城区天坛西里9号,116.401294,39.877773,False,31.218263096675923,516665,,1,302
D273770,北京天保堂医药有限公司安德路药店,C,0,D106309,北京恒创佳益医药有限公司,天保堂(安德路药店),116.471862,39.90954,False,20.51648413902911,344044,,2,303
D274733,北京颐寿百姓大药房有限责任公司第三十分店,C,64445.176,C700535,叮当智慧药房(北京)有限公司,北京市海淀区远大园六区沿街商场一层西段101号,116.2868,39.94941,False,19.451262144181058,280511,,2,304
D274751,北京同仁堂京北企业管理有限公司车道沟药店,C,5640.686,W701927,北京同仁堂商业投资集团有限公司,北京市海淀区蓝靛厂南路25号104室,116.29282,39.946298,False,26.504823726365355,440466,,1,305
D274752,北京同仁堂京北企业管理有限公司大钟寺店,C,3975.71,W701927,北京同仁堂商业投资集团有限公司,北京市海淀区北三环西路甲18号中鼎大厦A座盈泰百货一层,116.341116,39.966729,False,31.669610695756656,528255,,1,306
D274753,北京同仁堂大望路药店有限公司,C,13913.485,W701927,北京同仁堂商业投资集团有限公司,北京市朝阳区建国路87号地下一层内B1002-2号,116.47863,39.909535,False,22.19122732493759,362268,,2,307
D274755,北京同仁堂京北企业管理有限公司永定路店,C,7798.064,W701927,北京同仁堂商业投资集团有限公司,北京市海淀区永定路乙1号14号楼41号,116.263823,39.927176,True,27.03245102757048,447785,,1,308
D274763,北京养生堂药店有限公司北京站药店,C,0,C700533,北京养生堂药店有限公司,养生堂药店(站药店),116.39795,39.855441,False,24.762555049003677,415247,,2,309
D274764,北京养生堂药店有限公司回龙观药店,C,15561.875,C700533,北京养生堂药店有限公司,北京市昌平区回龙观镇育知东路30号院5号楼三层01,116.3371,40.072002,False,15.93975713419333,256268,,3,310
D276730,北京京海康佰馨医药有限责任公司第二十分公司,C,6055.341,D201169,北京京海康佰馨医药有限责任公司,北京市朝阳区光华路北3号楼1层3-2,116.468902,39.913709,False,18.32187182225013,302951,,2,311
D276734,北京京海康佰馨医药有限责任公司第二十五分公司,C,11821.688,D201169,北京京海康佰馨医药有限责任公司,北京市海淀区大慧寺12号,116.327684,39.951606,False,22.91038206414121,375810,,2,312
D276736,北京京海康佰馨医药有限责任公司第二十九分公司,C,9475.103,D201169,北京京海康佰馨医药有限责任公司,北京市海淀区民族大学西路66号院1号楼1层A04,116.317344,39.949254,False,21.721654787769147,357539,,2,313
D276743,北京京海康佰馨医药有限责任公司甘露园店,C,5864.944,D201169,北京京海康佰馨医药有限责任公司,京海康佰馨医药(甘露园店),116.463824,40.013027,False,11.73961046961042,192707,,3,314
D276749,北京馨康天保堂医药有限公司紫竹桥店,C,7421.555,D106309,北京恒创佳益医药有限公司,北京市海淀区紫竹院街道市检察院宿舍7号楼南侧2幢平房,116.316143,39.939119,False,31.65947032863234,525643,,1,315
D276750,北京馨康天保堂医药有限公司学院路店,C,14967.314,D106309,北京恒创佳益医药有限公司,北京市海淀区学院路17号1幢,116.352556,39.994347,False,29.658678759961884,486744,,1,316
D276755,北京东升天保堂连锁药店有限公司石景山店,C,10781.763,D106309,北京恒创佳益医药有限公司,北京市石景山区阜石路158号F1F0001号铺位,116.203846,39.922477,False,18.367518535957448,300367,,2,317
D276756,北京东升天保堂连锁药店有限公司知春路店,C,10639.876,D106309,北京恒创佳益医药有限公司,北京市海淀区知春路50号,116.338158,39.975669,False,33.8664227408059,560371,,1,318
D278269,北京颐寿百姓大药房有限责任公司石景山杨庄店,C,26228.023,C700535,叮当智慧药房(北京)有限公司,颐寿百姓大药房(石景山杨庄店),116.197144,39.915918,False,16.57990532228538,259444,,3,319
D278280,仁和药房网（北京）医药科技有限公司第四十六药房,C,49141.45,W219051,仁和药房网（北京）医药科技有限公司,北京市大兴区亦庄镇小康家园2幢1-2号12室,116.522138,39.821895,False,11.270749904890014,154176,,3,320
D278281,仁和药房网（北京）医药科技有限公司第四十七药房,C,0,W219051,仁和药房网（北京）医药科技有限公司,北京市北京经济技术开发区文化园西路6号院5号楼地下一层112,116.496816,39.806756,False,8.642537039742622,144928,,4,321
D279534,北京天保堂医药有限公司立汤路药店,C,5641.912,D106309,北京恒创佳益医药有限公司,北京市昌平区东小口镇中滩村南3号,116.409205,40.056027,False,14.084090941760229,232180,,3,322
D280079,北京同仁堂京北企业管理有限公司北沙滩药店,C,4881.647,W701927,北京同仁堂商业投资集团有限公司,北京市朝阳区双泉堡（松鹤服装厂）1幢,116.356858,40.01498,False,13.291458382519581,219427,,3,323
D280080,北京同仁堂连锁药店有限责任公司石景山路药店,C,3733.073,W701927,北京同仁堂商业投资集团有限公司,北京市石景山区石景山路31号院盛景国际广场4号楼101-F1013A、101-F1013B、101-F1013C,116.201606,39.908319,False,20.268379941917505,337238,,2,324
D280880,北京京海康佰馨医药有限责任公司第二十六分公司,C,12109.582,D201169,北京京海康佰馨医药有限责任公司,北京市朝阳区定福庄西街（内蒙古饭店）6号楼一层,116.552813,39.911141,False,12.120450601437895,194668,,3,325
D282022,北京同仁堂京北企业管理有限公司怀柔药店,C,1865.151,W701927,北京同仁堂商业投资集团有限公司,北京市怀柔区青春路富乐小区南里28号楼,116.630826,40.330902,False,5.395131529872949,89150,,4,326
D282026,北京同仁堂善和医药有限公司大峪药店,C,21825.696,W701927,北京同仁堂商业投资集团有限公司,北京市门头沟区新桥大街74号,116.103253,39.93818,True,10.536916778223912,161228,,3,327
D282027,北京同仁堂盛平药店有限责任公司,C,5822.935,W701927,北京同仁堂商业投资集团有限公司,北京市朝阳区安慧北里逸园6号楼1层103,116.415253,39.999195,True,10.114854869719343,165491,,3,328
D282028,北京同仁堂兴华药店有限公司西大街药店,C,8805.351,W701927,北京同仁堂商业投资集团有限公司,北京市大兴区黄村镇黄村西大街47号1幢,116.331632,39.731966,False,7.430314394456256,118360,,4,329
D282034,北京同仁堂连锁药店有限责任公司北苑南路药店,C,5893.719,W701927,北京同仁堂商业投资集团有限公司,北京通州区杨庄北里52号天时名苑小区14号楼B1-01,116.636563,39.903741,False,9.089052264598498,148239,,3,330
D282036,北京立坤元金象大药房有限公司,C,13552.994,W219032,北京金象大药房医药连锁有限责任公司,北京市朝阳区北苑家园莲葩园7号二层1-7号,116.422484,40.04414,False,13.806934270800804,221926,,3,331
D282037,北京田村路金象大药房有限公司,C,12922.45,W219032,北京金象大药房医药连锁有限责任公司,北京市海淀区田村路43号环京现代物流设施项目A-1F-113,116.253951,39.93174,False,14.637933733309621,236308,,3,332
D282116,北京嘉瑞堂金象大药房有限公司,C,233.797,W219032,北京金象大药房医药连锁有限责任公司,北京市房山区长阳镇碧桂园小区1号楼四单元102号底商,116.163268,39.760689,False,5.430667868349378,90902,,4,333
D303584,北京良乡国太药房有限公司回龙观昌药店,C,21820.33,,,北京市昌平区回龙观镇龙锦苑四区十三号楼1层6、7号,116.349127,40.085068,False,10.469662164600386,160104,,3,334
D303607,北京吴记天天好医药有限公司南口旺草堂大药房,C,1671.06,,,北京市昌平区南口镇道北南厂住宅中区11号楼一层北侧Z段区3号,116.147411,40.230226,False,2.297506082226653,37343,,4,335
D303632,北京同德堂药店有限责任公司成府路分公司,C,7199.272,,,北京市海淀区成府路蓝旗营小区4号楼1层101室,116.323579,39.992772,False,20.467160372594286,338115,,2,336
D337548,北京同仁堂林肯公园药店有限责任公司,C,6070.513,W701927,北京同仁堂商业投资集团有限公司,北京市北京经济技术开发区文化园西路6号院26号楼1层109,116.494979,39.804671,False,7.807549503410105,126624,,4,337
D337564,北京嘉事堂药业股份有限公司永德康正药店,C,11849.106,W703139,北京嘉事堂连锁药店有限责任公司,嘉事堂药业(永德康正药店),116.206882,39.980518,False,4.962986412965299,74828,,4,338
D337566,北京华神堂平房医药有限公司,C,3870.087,,,北京市朝阳区平房乡平房村556号,116.470324,39.94539,False,15.847708484018268,263010,,3,339
D337569,北京高远百康大药房有限公司团结湖分店,C,0,D070415,北京高远百康大药房有限公司,北京市朝阳区白家庄东里42号11号楼,116.464884,39.92899,False,17.107247534907852,286874,,2,340
D337575,北京晋垣康大药房有限公司,C,2790.569,,,北京市昌平区东小口镇小辛庄村66号,116.37475,40.095822,False,7.963706124717432,131567,,4,341
D337578,北京金药典医药有限公司,C,2567.808,,,北京市朝阳区雅成三里5号楼1层102,116.521125,39.920309,False,15.190258261119848,252908,,3,342
D337588,北京康泰诚信医药有限公司第十分公司,C,1273.527,,,北京市昌平区白浮泉路26号院4号楼106-107号底商,116.245533,40.200136,False,6.294207269194951,104646,,4,343
D337589,北京保慈仁德大药房,C,9710.208,,,北京市朝阳区小红门乡鸿博家园B（二区）8号楼三单元底商,116.475818,39.826622,False,9.970111687505684,160309,,3,344
D337596,北京养生堂药店有限公司上庄药店,C,26699.187,C700533,北京养生堂药店有限公司,北京市海淀区上庄三嘉信苑15号楼1层2单元101、102,116.205577,40.126111,False,4.450661926418851,55713,,4,345
D337603,北京百济堂药品超市有限责任公司新都利康分店,C,7688.015,D070363,北京百济堂药品超市有限责任公司,北京市海淀区建材城西二里23号楼1层8号底商,116.356718,40.065251,False,12.163600308745929,198525,,3,346
D337606,北京高远百康大药房有限公司老山分店,C,4449.882,D070415,北京高远百康大药房有限公司,高远百康大药房(老山分店),116.404268,39.96225,False,28.21201324906531,469938,,1,347
D337608,北京高远百康大药房有限公司双槐树分店,C,10506.682,D070415,北京高远百康大药房有限公司,北京市海淀区阜石路甲19号院7号楼102-1号,116.259473,39.927436,False,24.424537486274836,402133,,2,348
D337618,北京金象大药房医药连锁有限责任公司金悦金象大药房,C,6376.155,W219032,北京金象大药房医药连锁有限责任公司,北京市朝阳区东坝中路38号楼地下二层B203a号,116.547948,39.951237,False,6.983929834192961,112596,,4,349
D337619,北京金象大药房医药连锁有限责任公司马家堡东路金象大药房,C,13326.691,W219032,北京金象大药房医药连锁有限责任公司,北京市丰台区马家堡东路101号院10号楼地下一层—102内B1—19,116.385414,39.844721,False,21.766886126540044,355568,,2,350
D337627,丹药堂医药(北京)有限公司,C,2661.567,,,丹药堂医药,116.453187,39.855816,False,21.97756971432338,366659,,2,351
D337649,北京养生堂药店有限公司民四元桥店,C,10481.927,C700533,北京养生堂药店有限公司,养生堂药店(民四元桥店),116.461313,39.978897,False,17.125625911305946,279754,,2,352
D337676,北京合生康医药有限责任公司,C,0,,,北京市海淀区万泉庄11号楼1层11-1-2,116.303297,39.968569,False,18.417272193283498,308842,,2,353
D337679,北京嘉事堂药业股份有限公司酒仙桥南路分店,C,11329.203,W703139,北京嘉事堂连锁药店有限责任公司,嘉事堂药业(酒仙桥南路分店),116.206882,39.980518,False,4.941015245603269,74828,,4,354
D337680,北京健百惠医药有限公司,C,5892.685,,,北京市朝阳区芍药居甲4号东侧1层1-2内11号,116.437914,39.982547,False,13.44051117807443,221210,,3,355
D337710,北京市朝阳区颐寿百姓大药房三十六店东坝店(西子大药房）,C,23223.731,C700535,叮当智慧药房(北京)有限公司,市朝阳区颐寿百姓大药房三十六店东坝店(西子大药房）,116.467346,39.989519,False,17.622710659706215,279060,,2,356
D337721,北京市朝阳区颐寿百姓大药房大药房四十五店仁中仁,C,113786.979,C700535,叮当智慧药房(北京)有限公司,市朝阳区颐寿百姓大药房大药房四十五店仁中仁,116.467346,39.989519,False,21.449925118282156,279060,,2,357
D340325,北京京西善和医药投资有限公司石门营店,C,14580.149,,,北京市门头沟区石门营新区6区7号楼底商,116.101575,39.884851,False,2.5302094674193287,32097,,4,358
D340341,北京广年堂医药有限公司,C,7264.341,,,北京市丰台区益泽路1号院1号楼101号,116.308312,39.864268,False,20.599493389814004,340288,,2,359
D344116,北京仁仁好医药有限公司,C,2129.129,,,北京市房山区良乡西潞北大街8号楼一层,116.136321,39.732284,False,8.588798015410442,142518,,4,360
D344131,北京华辰一生姚家园医药有限公司,C,4079.934,,,北京市朝阳区金盏乡金盏大街3号院东房02号,116.577014,40.002279,False,3.806770900635377,60945,,4,361
D344145,北京同维安正医药有限责任公司,C,531.221,,,北京市海淀区安宁华庭一区十三号楼101-D01,116.328111,40.045991,False,19.918210433312648,333635,,2,362
D344146,北京同誉堂药店有限公司,C,12426.096,,,北京市顺义区北京临空经济核心区安泰大街9号院20号楼1层108,116.538928,40.089066,False,5.06059979476832,76056,,4,363
D344155,北京康益友医药有限公司,C,11390.542,,,北京市门头沟区滨河临镜苑2号商业楼1层1-2,116.115626,39.934558,False,6.446963304386148,100038,,4,364
D346231,北京祝您健康医药有限责任公司第一分公司,C,19784.311,,,北京市昌平区沙河镇白各庄村白各庄商业中心底商F1-02,116.35854,40.116007,False,5.076731794895136,71112,,4,365
D347582,北京高远百康大药房有限公司莲宝路分店,C,51493.156,D070415,北京高远百康大药房有限公司,北京市海淀区莲宝路10号院商用楼一层-2,116.297319,39.888588,False,24.352246288865643,371875,,2,366
D348438,北京普安法玛西医药有限公司常营药房,C,24019.123,D047005,北京普安法玛西医药有限公司,北京市朝阳区常通路2号院1号楼B2-12a,116.60015,39.925349,False,12.391656468310476,190776,,3,367
D348444,北京东升天保堂连锁药店有限公司回龙观二分店,C,4576.339,D106309,北京恒创佳益医药有限公司,东升天保堂连锁药店(回龙观二分店),116.334383,39.995077,False,28.587024256200664,476137,,1,368
D354939,北京天天爱心堂大药房,C,742.19,,,天天爱心堂大药房,116.299314,39.814135,False,7.118128535741539,118839,,4,369
D354952,京润堂（北京）医药有限责任公司,C,2120.927,,,北京市海淀区玉海园五里20号配套商业楼1-109,116.259367,39.922881,False,23.663991899296587,395322,,2,370
D354962,北京昌药医药连锁经营有限公司济仁堂大药房,C,17326.494,,,北京市昌平区城区镇北环路3号,116.238289,40.229923,True,11.599735501670143,182239,,3,371
D354964,北京卫民堂医药有限公司,C,1190.761,,,北京市丰台区开阳路8号F1-20,116.376009,39.8683,False,22.190561378648272,371273,,2,372
D355123,北京高远百康大药房有限公司花家地分店,C,8197.265,D070415,北京高远百康大药房有限公司,北京市朝阳区花家地小区17号楼一层1号,116.468002,39.983455,False,12.778234227443466,208471,,3,373
D355124,北京高远百康大药房有限公司朝外分店,C,17804.043,D070415,北京高远百康大药房有限公司,北京市朝阳区吉庆里9、10号楼1层商业用房1-2,116.439317,39.927203,False,28.382125959346194,463327,,1,374
D355127,北京高远百康大药房有限公司府前街分店,C,13388.667,D070415,北京高远百康大药房有限公司,北京市顺义区站前街8号院5号楼1层104,116.647965,40.124814,False,7.882814501589026,122700,,4,375
D355128,北京高远百康大药房有限公司良乡大学城分店,C,10319.656,D070415,北京高远百康大药房有限公司,北京市房山区书院南街13号院1号楼1层(01)2-124,116.169064,39.72243,False,3.948273689535334,58896,,4,376
D355140,北京好益康大药房有限公司第一分店,C,64.437,,,北京市房山区西潞街道苏庄三里共创大厦107,116.123221,39.72382,False,7.03969278934999,118004,,4,377
D355598,叮当智慧药店北京有限公司（马家堡店）,C,69667.544,C700535,叮当智慧药房(北京)有限公司,叮当智慧药店(（马家堡店）),116.433224,39.898797,False,23.21024318190527,339845,,2,378
D356796,北京开心人大药房有限公司西马各庄店,C,3301.553,D070507,北京开心人大药房有限公司,开心人大药房(西马各庄店),116.501933,39.925281,False,20.02687672103928,333494,,2,379
D356945,北京福瑞宏达医药有限公司第42分店(阎村),C,4194.189,D070415,北京高远百康大药房有限公司,福瑞宏达(阎村店),116.074765,39.712142,False,2.909228012806648,45813,,4,380
D357000,北京养生堂药店有限公司阜通路西大街药店,C,20144.116,C700533,北京养生堂药店有限公司,养生堂药店(阜通路西大街药店),116.333905,39.724884,False,9.518041087471637,145334,,3,381
D357359,北京同仁堂京北企业管理有限公司平谷迎宾环岛药店,C,2449.523,W701927,北京同仁堂商业投资集团有限公司,北京市平谷区迎宾街1号院22号楼-1层(-101)09号,117.094211,40.146274,False,9.154244234871296,151773,,3,382
D357461,北京福瑞宏达医药有限公司第67分店(顺义府前街),C,0,,,福瑞宏达(顺义府前街店),116.534015,40.24808,False,0.3870798460267813,6491,,4,383
D357524,北京京海康佰馨医药有限责任公司电商部,C,121661.346,D201169,北京京海康佰馨医药有限责任公司,京海康佰馨医药(电商部),116.463824,40.013027,False,16.63318124774188,192707,,3,384
D357668,北京东升天保堂连锁药店有限公司林业大学北路店,C,11981.48,D106309,北京恒创佳益医药有限公司,北京市海淀区林业大学北路18号院2号楼1层0118,116.347394,40.006937,False,23.405770275567146,384004,,2,385
DM0011314,北京养生堂药店有限公司缤纷城药店,C,,C700533,北京养生堂药店有限公司,北京市房山区拱辰街道天星街1号院25幢-1层-101-C013,116.160744,39.756688,False,5.480838325138722,91909,,4,386
DM0011616,思方隆(北京)医药有限公司东方广场店,C,9451.628,C700534,思方隆(北京)医药有限公司,思方隆(东方广场店),116.412233,39.909874,False,30.19288702408622,499611,,1,387
DM0390394,北京万民阳光大药房有限公司朝阳北路店,C,16081.876,D089098,北京万民阳光大药房有限公司,北京市朝阳区定福家园南里3号院1号楼1-2,116.566435,39.923701,False,14.95798448921602,239436,,3,388
DM0398811,北京同仁堂润丰医药有限公司东坝药店,C,4067.045,W701927,北京同仁堂商业投资集团有限公司,北京市朝阳区和敬路4号院6号楼1层（01）6-2,116.575607,39.958954,False,6.109205192082948,99564,,4,389
DM0398812,北京同仁堂苏州街医药有限责任公司丰科园店,C,3165.607,W701927,北京同仁堂商业投资集团有限公司,北京市丰台区南四环西路186号四区9幢1层4F9-1,116.295751,39.822299,False,12.604894070396554,209130,,3,390
DM0440524,叮当智慧药房(北京)有限公司第十八店,C,0,C700535,叮当智慧药房(北京)有限公司,叮当智慧药房(第十八店),116.318591,39.972078,False,29.73537716580745,498637,,1,391
DM0470233,北京高远百康大药房有限公司甘露园分店,C,14316.697,D070415,北京高远百康大药房有限公司,北京市朝阳区甘露园南里二区15号楼一层2号区域,116.516381,39.913747,False,16.055838399869053,259097,,3,392
DM0470235,北京高远百康大药房有限公司顺丰大街分店,C,4740.61,D070415,北京高远百康大药房有限公司,北京市顺义区顺丰大街16号院1号楼1层101,116.649342,40.186415,False,2.3189911920654986,35528,,4,393
DM0470240,北京京海康佰馨医药有限责任公司华晨康泰大屯店,C,16529.053,D201169,北京京海康佰馨医药有限责任公司,京海康佰馨医药(华晨康泰大屯店),116.463824,40.013027,False,12.190277081662915,192707,,3,394
DM0470241,北京京海康佰馨医药有限责任公司华威,C,0,D201169,北京京海康佰馨医药有限责任公司,京海康佰馨医药(华威),116.463824,40.013027,False,11.49175718506901,192707,,3,395
DM0470243,北京京海康佰馨医药有限责任公司天丰利,C,7475.496,D201169,北京京海康佰馨医药有限责任公司,京海康佰馨医药(天丰利),116.370139,40.037308,False,8.919988970049182,144283,,3,396
DM0470251,北京壹壹壹商业连锁有限公司鼓楼大街分店,C,14911.658,W708766,北京壹壹壹商业连锁有限公司,北京市昌平区城北街道鼓楼南街12号1层,116.233797,40.221339,False,12.14631578756097,193116,,3,397
DM0470256,北京壹壹壹商业连锁有限公司南沙滩分店,C,61306.408,W708766,北京壹壹壹商业连锁有限公司,北京市朝阳区科学园南里西街3号院5号楼1层2单元101,116.377146,39.997434,False,13.250331297813304,178751,,3,398
DM0470258,北京壹壹壹商业连锁有限公司望京西园分店,C,20603.27,W708766,北京壹壹壹商业连锁有限公司,北京市朝阳区望京西园三区326号01-01,116.473928,40.000862,False,11.961360338860153,185981,,3,399
DM0470260,北京壹壹壹商业连锁有限公司中山南大街分店,C,52691.344,W708766,北京壹壹壹商业连锁有限公司,北京市顺义区仁和镇中山南街8号1幢一层,116.651403,40.134834,False,7.237790016980053,84031,,4,400
DM0501594,北京百世德大药房有限公司石榴园店,C,,C700792,北京海王星辰药房有限公司（总部）,百世德大药房(石榴园店),116.420659,39.849377,False,19.08731211778772,320078,,2,401
DM0578062,北京百世德大药房有限公司安苑路店,C,,C700792,北京海王星辰药房有限公司（总部）,百世德大药房(安苑路店),116.416044,39.983521,False,13.56270293962425,227435,,3,402
W704279,北京同成药店有限公司,C,15366.814,,,北京市西城区南礼士路56号9号楼102室,116.355043,39.912364,False,36.72559105053187,604967,,1,403
W705485,北京护生堂医药科技有限公司,C,22190.364,,,北京市朝阳区北苑路4号,116.418735,40.030821,False,9.692355662630193,146807,,3,404
W705513,北京厚德泰康医药有限责任公司,C,14540.369,,,北京市房山区长阳镇祥云街10号院6号楼1层103,116.208972,39.753262,False,3.126710139758198,42128,,4,405
W705529,北京三兴堂医药有限公司,C,3703.773,,,北京市昌平区昌平镇商业街56号,116.230272,40.215285,False,11.540760239887392,190904,,3,406
W705551,北京盛年堂医药有限公司,C,6659.457,,,北京市门头沟区冯村嘉园一区2号楼2单元102室,116.110918,39.909411,False,6.515913662590818,104547,,4,407
W705554,北京康寿安燕北园大药房有限责任公司,C,6516.139,,,北京市海淀区骚子营北京大学燕北园三区301楼东侧平房,116.305469,39.989481,False,16.494859246897594,271987,,3,408
W705561,北京华辰一生十里河医药有限公司,C,2279.666,,,北京市朝阳区十八里店乡十里河村饮马井120号,116.452438,39.867591,False,17.086764848425556,284915,,2,409
W705580,北京德良方医药有限责任公司,C,3485.435,,,北京市通州区怡乐北街甲80号18号楼1层,116.642337,39.888076,False,12.161380318409993,201466,,3,410
W705582,北京幸福博信大药房有限责任公司,C,1050.987,,,北京市房山区西潞街道北潞馨家园7号楼1-3-6,116.124493,39.737407,False,8.893044620726355,148384,,3,411
W705609,北京康利友利民医药有限公司,C,10365.686,,,北京市石景山区双峪路35号爱玛裕家居购物广场D006号,116.11831,39.939035,False,8.923100673348745,142287,,3,412
W708688,北京益顺堂药房有限公司,C,3952.601,,,益顺堂药房,116.304625,39.665082,True,2.1790058307246514,33739,,4,413
W708796,北京明医堂大药房有限公司,C,40328.596,,,明医堂大药房,116.58146,39.735842,False,3.0280319524598287,22198,,4,414
W708797,北京乐普护生堂网络科技有限公司,C,41457.723,,,北京市昌平区超前路37号2幢（7-1）113,116.255721,40.205927,False,10.137049069977706,140610,,3,415
C700538,北京康寿安医药销售有限责任公司,C,0,,,北京市海淀区香山路88号,116.263818,40.005518,False,7.416356821902124,124366,,4,416
D017394,北京市昌平回春堂药店,B,8445.086,,,北京市昌平区城区镇鼓楼东街50号,116.235342,40.224244,False,12.554944580830316,204551,,3,417
D017403,北京丽晶长椿大药房有限责任公司,B,6762.349,,,北京市西城区长椿街东里西口南侧,116.364226,39.898317,False,26.795469639248065,444545,,1,418
D017406,北京天康泰药店,B,4760.394,,,北京市海淀区西八里庄北里小区54号楼一层,116.292084,39.927352,False,25.798834848815133,429251,,2,419
D017429,北京九九康医药有限责任公司,C,2223.758,,,北京市丰台区和义西里2区32号楼7号底商,116.399693,39.813824,False,8.954890536216753,148590,,3,420
D017450,北京安泽大药房有限责任公司,C,6292.63,,,北京市朝阳区西大望路26号1号楼1层,116.477089,39.890695,False,20.220844563724356,334627,,2,421
D017514,北京京源仁康大药房有限责任公司,B,5738.722,,,北京市石景山区七星园11楼前平房第1间,116.214062,39.898211,False,12.224462158951054,200927,,3,422
D017534,北京三九朝阳医药有限公司,A,21883.772,,,北京市朝阳区新街大院甲8号,116.468446,39.916568,True,15.816859799270835,249727,,3,423
D017547,北京康泰民生堂大药房,B,5303.793,,,北京市朝阳区和平街十一区9号楼一层,116.424339,39.968006,False,21.493076275931443,356662,,2,424
D017576,北京六合堂药店,B,6739.575,,,北京市东城区西革新里甲2号,116.398008,39.865008,True,17.88016151872922,295059,,2,425
D017582,北京生命之树药店,C,8374.666,,,北京市朝阳区小营路12号亚运花园,116.425278,39.994461,False,15.91260407521384,260906,,3,426
D017586,北京鑫达康药店,C,1535.018,,,顺义区新顺北大街路西,116.651507,40.130814,False,5.075917128821001,84031,,4,427
D017595,北京嘉圣雄大药房,C,10020.642,,,嘉圣雄大药房,116.265808,40.051,False,7.156671182379511,112910,,4,428
D017643,北京林生堂医药有限公司,B,58492.763,,,北京市通州区通广嘉园小区123号楼9-10号,116.62897,39.890486,False,12.19595849133446,163064,,3,429
D036264,北京医保全新大药房有限责任公司仙英店,B,5809.201,C700296,北京医保全新大药房有限责任公司,医保全新大药房(仙英店),116.280257,39.953039,False,16.973298331391376,280511,,2,430
D036286,北京国大药房连锁有限公司东方四环连锁店,B,15336.911,W219036,北京国大药房连锁有限公司,北京市朝阳区南磨房乡楼梓庄世纪东方嘉园二区4栋4-10,116.495698,39.87412,True,16.035264394013584,258029,,3,431
D036287,北京国大药房连锁有限公司胜古苑连锁店,B,17046.348,W219036,北京国大药房连锁有限公司,北京市朝阳区安外胜古西庄48号3号楼E座,116.41226,39.970095,False,18.378759479347263,296116,,2,432
D036489,北京健友康大药店有限责任公司南皋店,C,0,,,北京市朝阳区南皋乡南皋村,116.518597,40.002234,False,4.922789765730523,82551,,4,433
D036499,北京嘉事堂药业股份有限公司北京半壁店药店,B,20640.818,W703139,北京嘉事堂连锁药店有限责任公司,嘉事堂药业(半壁店药店),116.206882,39.980518,False,5.334525288006923,74828,,4,434
D036502,北京嘉事堂药业股份有限公司北京知春里药店,B,13766.686,W703139,北京嘉事堂连锁药店有限责任公司,嘉事堂药业(知春里药店),116.206882,39.980518,False,5.044023589342587,74828,,4,435
D036508,北京嘉事堂药业股份有限公司东辛店药店,B,6519.636,W703139,北京嘉事堂连锁药店有限责任公司,嘉事堂药业(东辛店药店),116.206882,39.980518,False,4.73776232824004,74828,,4,436
D036513,北京金象大药房医药连锁有限责任公司大山子怡信金象大药房,B,17177.145,W219032,北京金象大药房医药连锁有限责任公司,金象大药房医药连锁(大山子怡信金象大药房),116.489386,39.987255,False,14.250207432439403,226791,,3,437
D036517,北京金象大药房医药连锁有限责任公司老君堂金象大药房,C,773.109,W219032,北京金象大药房医药连锁有限责任公司,金象大药房医药连锁(老君堂金象大药房),116.367551,39.941209,False,34.78923358622071,582838,,1,438
D036521,北京金象大药房医药连锁有限责任公司亚运村金象大药房,B,5828.812,W219032,北京金象大药房医药连锁有限责任公司,金象大药房医药连锁(亚运村金象大药房),116.402885,39.991497,False,17.291734129108693,285837,,2,439
D036529,北京金象大药房医药连锁有限责任公司垡头金象大药房,B,10290.725,W219032,北京金象大药房医药连锁有限责任公司,金象大药房医药连锁(垡头金象大药房),116.367551,39.941209,False,35.19144925726614,582838,,1,440
D036545,北京金象大药房医药连锁有限责任公司东坝健丰金象大药房,B,0,W219032,北京金象大药房医药连锁有限责任公司,金象大药房医药连锁(东坝健丰金象大药房),116.367551,39.941209,False,34.75656190087154,582838,,1,441
D036552,北京双树金象大药房有限责任公司,C,4459.325,W219032,北京金象大药房医药连锁有限责任公司,北京市朝阳区黑庄户乡双树北队245号,116.596663,39.853323,False,4.523793627740798,72700,,4,442
D036574,北京永安堂医药连锁有限责任公司北京站北口药店,A,14239.713,W701458,北京亚泰永安医药股份有限公司,北京市东城区朝阳门内南小街22号楼首层7号,116.427199,39.912501,False,29.832472518105074,490174,,1,443
D036594,北京同仁堂北苑双营药店有限责任公司,C,18075.985,W701927,北京同仁堂商业投资集团有限公司,北京市朝阳区双营路11号院4号楼1层4-3,116.418745,40.037817,False,11.490555197880775,179877,,3,444
D036610,北京同仁堂连锁药店有限责任公司三里河万方药店,B,19978.911,W701927,北京同仁堂商业投资集团有限公司,北京市西城区月坛南街30号一层,116.340929,39.913668,True,38.277514570802616,627723,,1,445
D036613,北京同仁堂连锁药店有限责任公司梨园街分店,A,6809.387,W701927,北京同仁堂商业投资集团有限公司,同仁堂连锁药店(梨园街分店),116.366202,39.939669,False,35.04432746754423,582838,,1,446
D036618,北京国大药房连锁有限公司南线阁连锁店,B,19052.614,W219036,北京国大药房连锁有限公司,北京市西城区枣林北里2号楼一层,116.365868,39.912289,True,32.6564523473193,534119,,1,447
D036645,仁和药房网（北京）医药科技有限公司第十一药房,B,50199.779,W219051,仁和药房网（北京）医药科技有限公司,北京市朝阳区广渠路28号珠江华景家园15号楼125A,116.480112,39.890069,False,22.076366303488463,334627,,2,448
D036653,北京盛仁堂医药有限公司第三分店,A,7230.383,W219976,北京盛仁堂医药有限公司,北京市通州区于家务回族乡渠头商业街,116.698589,39.718865,True,0.8107703540898781,8472,,4,449
D036677,北京同仁堂连锁药店有限责任公司大兴药店,B,7370.067,W701927,北京同仁堂商业投资集团有限公司,同仁堂连锁药店(大兴药店),116.366202,39.939669,False,35.068021876148414,582838,,1,450
D036707,北京国大药房连锁有限公司丰益桥连锁店,B,20282.442,W219036,北京国大药房连锁有限公司,北京市丰台区丰管路甲52号1号楼1层103号,116.301554,39.857771,False,22.664087666583914,365684,,2,451
D036711,仁和药房网（北京）医药科技有限公司第十二药房,B,64562.031,W219051,仁和药房网（北京）医药科技有限公司,北京市东城区东直门外小街10号,116.4448,39.943893,True,24.71848267803495,368755,,2,452
D036719,北京同仁堂连锁药店有限责任公司通州药店,A,11359.186,W701927,北京同仁堂商业投资集团有限公司,北京市通州区新华东街250号,116.663389,39.908151,True,11.860522074838359,190841,,3,453
D036739,仁和药房网（北京）医药科技有限公司第三十四药房,B,48546.565,W219051,仁和药房网（北京）医药科技有限公司,北京市朝阳区定福庄西街16号楼底商,116.550802,39.911758,False,13.660282169365823,194668,,3,454
D037440,北京盛仁堂医药有限公司康健绿舟店,A,23392.393,W219976,北京盛仁堂医药有限公司,盛仁堂(康健绿舟店),116.71722,40.040449,True,1.8501476554297183,14448,,4,455
D037442,北京同仁堂连锁药店有限责任公司长桥园药店,A,4194.35,W701927,北京同仁堂商业投资集团有限公司,北京市通州区长桥园9号楼,116.625609,39.90713,True,10.361490894067456,170781,,3,456
D037446,北京金象大药房医药连锁有限责任公司永兴康金象大药房,B,8036.086,W219032,北京金象大药房医药连锁有限责任公司,金象大药房医药连锁(永兴康金象大药房),116.65131,40.11503,False,6.065418005633365,96017,,4,457
D037643,北京国大药房连锁有限公司金沟河连锁店,B,18717.766,W219036,北京国大药房连锁有限公司,北京市海淀区金沟河路10号院1号楼一层,116.261056,39.917463,True,20.713551512417027,334084,,2,458
D037645,北京国大药房连锁有限公司宏嘉丽苑连锁店,B,11449.495,W219036,北京国大药房连锁有限公司,北京市海淀区罗庄宏嘉丽苑第三幢首层08号,116.349489,39.973166,True,33.75459535561386,557922,,1,459
D037678,北京永安堂医药连锁有限责任公司鼓楼药店,C,9694.298,W701458,北京亚泰永安医药股份有限公司,北京市东城区鼓楼东大街301号,116.397214,39.940904,False,35.32302016033546,585467,,1,460
D037719,北京同仁堂连锁药店有限责任公司西站药店,A,12299.015,W701927,北京同仁堂商业投资集团有限公司,北京市海淀区羊坊店路17号平房,116.320821,39.898607,True,21.171788612439226,346317,,2,461
D037758,北京金象大药房医药连锁有限责任公司工大金象大药房,B,1324.529,W219032,北京金象大药房医药连锁有限责任公司,金象大药房医药连锁(工大金象大药房),116.367551,39.941209,False,34.81253666603901,582838,,1,462
D037763,北京永安堂医药连锁有限责任公司东四药店,A,9248.73,W701458,北京亚泰永安医药股份有限公司,北京市东城区东四南大街57号,116.417478,39.921439,False,26.8997095523231,444531,,1,463
D037769,北京金象大药房医药连锁有限责任公司华堂金象大药房,A,18103.568,W219032,北京金象大药房医药连锁有限责任公司,金象大药房医药连锁(华堂金象大药房),116.367551,39.941209,False,35.52162100300768,582838,,1,464
D037832,仁和药房网（北京）医药科技有限公司第十三药房,B,46820.573,W219051,仁和药房网（北京）医药科技有限公司,北京市通州区新华联家园小区8号楼312号,116.641146,39.89181,True,13.227633371846867,188636,,3,465
D037845,北京同仁堂连锁药店有限责任公司九棵树分店,A,11588.658,W701927,北京同仁堂商业投资集团有限公司,同仁堂连锁药店(九棵树分店),116.366202,39.939669,False,35.24630007206756,582838,,1,466
D037857,北京嘉事堂药业股份有限公司工体路药店,B,10550.535,W703139,北京嘉事堂连锁药店有限责任公司,嘉事堂药业(工体路药店),116.206882,39.980518,False,4.908108636202176,74828,,4,467
D037858,北京金象大药房医药连锁有限责任公司酒仙桥金象大药房,C,15178.249,W219032,北京金象大药房医药连锁有限责任公司,金象大药房医药连锁(酒仙桥金象大药房),116.367551,39.941209,False,35.39799664743303,582838,,1,468
D037869,北京永安堂医药连锁有限责任公司宽街药店,B,7261.772,W701458,北京亚泰永安医药股份有限公司,北京市东城区交道口南大街丙69号,116.408427,39.935916,False,31.46791423618667,522544,,1,469
D037885,北京同仁堂连锁药店有限责任公司清华园药店,B,16904.339,W701927,北京同仁堂商业投资集团有限公司,北京市海淀区清华大学照澜院商业区,116.32468,40.000105,True,19.85470566561373,320967,,2,470
D037889,仁和药房网(北京)医药科技有限公司第十六药房,B,53057.985,W219051,仁和药房网（北京）医药科技有限公司,北京市西城区马连道路80号2号楼底商104号,116.330045,39.876841,False,31.606039222652445,492406,,1,471
D037908,北京永安堂医药连锁有限责任公司灯市口药店,B,27279.795,W701458,北京亚泰永安医药股份有限公司,北京市东城区东四南大街118号,116.418157,39.919683,False,23.28467899923372,371132,,2,472
D037915,北京嘉事堂药业股份有限公司嘉事堂益寿堂药店,B,26627.591,W703139,北京嘉事堂连锁药店有限责任公司,嘉事堂药业(嘉事堂益寿堂药店),116.206882,39.980518,False,5.587527081690517,74828,,4,473
D040875,北京嘉事堂药业股份有限公司望远路药店,B,13482.883,W703139,北京嘉事堂连锁药店有限责任公司,嘉事堂药业(望远路药店),116.206882,39.980518,False,5.032030038217,74828,,4,474
D040884,北京金象大药房医药连锁有限责任公司康仁金象大药房,B,13291.759,W219032,北京金象大药房医药连锁有限责任公司,金象大药房医药连锁(康仁金象大药房),116.37286,39.93181,False,22.992961679826127,376153,,2,475
D040891,北京金象大药房医药连锁有限责任公司新街口金象大药房,A,15087.557,W219032,北京金象大药房医药连锁有限责任公司,北京市西城区新街口南大街10号,116.372866,39.940441,True,31.607508138739526,519339,,1,476
D040901,北京嘉事堂药业股份有限公司永丰药店,B,11599.267,W703139,北京嘉事堂连锁药店有限责任公司,嘉事堂药业(永丰药店),116.206882,39.980518,False,4.952428184829355,74828,,4,477
D040903,北京市金象大药房医药连锁有限责任公司西四北店,A,13812.564,W219032,北京金象大药房医药连锁有限责任公司,市金象大药房医药连锁(西四北店),116.367551,39.941209,False,35.34028262443487,582838,,1,478
D040915,北京金象大药房医药连锁有限责任公司马甸金象大药房,B,12832.003,W219032,北京金象大药房医药连锁有限责任公司,北京市西城区马甸南村2号楼,116.378221,39.969012,True,21.31447388279345,348332,,2,479
D040997,北京金象大药房医药连锁有限责任公司世代金象大药房,A,11995.136,W219032,北京金象大药房医药连锁有限责任公司,金象大药房医药连锁(世代金象大药房),116.367551,39.941209,False,35.26347788440368,582838,,1,480
D040998,北京医保中洋大药房有限公司中洋军庄分店,C,2190.671,W219991,北京医保中洋大药房有限公司,北京市门头沟区军庄供销社楼下一层,116.103455,40.003694,False,0.9646556318801789,14624,,4,481
D041013,北京嘉事堂药业股份有限公司劲松桥药店,B,17028.782,W703139,北京嘉事堂连锁药店有限责任公司,嘉事堂药业(劲松桥药店),116.206882,39.980518,False,5.181880184067003,74828,,4,482
D041032,北京金象大药房医药连锁有限责任公司大山子金象大药房,B,15788.622,W219032,北京金象大药房医药连锁有限责任公司,金象大药房医药连锁(大山子金象大药房),116.367551,39.941209,False,35.42379108858122,582838,,1,483
D041076,北京金象大药房医药连锁有限责任公司安贞金象大药房,B,116923.097,W219032,北京金象大药房医药连锁有限责任公司,金象大药房医药连锁(安贞金象大药房),116.367551,39.941209,False,39.69774695399461,582838,,1,484
D041078,北京德威治大药房有限责任公司第二分店,C,0,W219989,北京德威治医药连锁有限责任公司,德威治大药房(第二分店),116.39189,39.865461,False,23.849747900161905,399940,,2,485
D041082,北京广林金象大药房有限公司,B,2264.419,W219032,北京金象大药房医药连锁有限责任公司,广林金象大药房,116.140636,40.136229,True,1.7719274811764227,28109,,4,486
D041107,北京嘉事堂药业股份有限公司北京五里坨药店,B,11956.426,W703139,北京嘉事堂连锁药店有限责任公司,嘉事堂药业(五里坨药店),116.206882,39.980518,False,4.96752176990937,74828,,4,487
D041109,北京金象大药房医药连锁有限责任公司爱康金象大药房,B,113720.69,W219032,北京金象大药房医药连锁有限责任公司,金象大药房医药连锁(爱康金象大药房),116.37286,39.93181,True,27.23710116544314,376153,,1,488
D041118,北京永安堂医药连锁有限责任公司和平里药店,A,17874.717,W701458,北京亚泰永安医药股份有限公司,北京市东城区和平里西街化工部宿舍14楼,116.417829,39.959352,True,31.787610691191926,520384,,1,489
D041133,北京嘉事堂药业股份有限公司北京西三旗药店,B,15626.79,W703139,北京嘉事堂连锁药店有限责任公司,嘉事堂药业(西三旗药店),116.206882,39.980518,False,5.122631822599139,74828,,4,490
D041134,北京金象大药房医药连锁有限责任公司长辛店鑫兴金象大药房,B,14543.181,W219032,北京金象大药房医药连锁有限责任公司,金象大药房医药连锁(长辛店鑫兴金象大药房),116.367551,39.941209,False,35.371158592422255,582838,,1,491
D041146,北京嘉事堂药业股份有限公司蓝靛厂药店,B,15882.392,W703139,北京嘉事堂连锁药店有限责任公司,嘉事堂药业(蓝靛厂药店),116.206882,39.980518,False,5.13343359585313,74828,,4,492
D041147,北京金象大药房医药连锁有限责任公司月坛南街金象大药房,A,32425.033,W219032,北京金象大药房医药连锁有限责任公司,北京市西城区月坛南街17号,116.348768,39.914065,True,27.991611516819415,446417,,1,493
D041159,北京同仁堂连锁药店有限责任公司房山药店,B,4248.534,W701927,北京同仁堂商业投资集团有限公司,北京市房山区城关北大街9号,116.285605,39.859463,True,19.539379957118168,324648,,2,494
D041187,北京国大药房连锁有限公司秀菊园连锁店,B,0,W219036,北京国大药房连锁有限公司,北京市朝阳区立水桥北苑家园绣菊园309号（住宅）楼2单元101室,116.425772,40.044761,False,12.557225619664681,210574,,3,495
D041194,北京同仁堂连锁药店有限责任公司幸福大街药店,A,7025.622,W701927,北京同仁堂商业投资集团有限公司,北京市东城区安化寺幸福大街17号楼一层01号,116.42777,39.892754,True,24.50313954118825,405918,,2,496
D041233,北京嘉事堂药业股份有限公司北京嘉事堂仙仁堂药店,B,15017.989,W703139,北京嘉事堂连锁药店有限责任公司,嘉事堂药业(嘉事堂仙仁堂药店),116.206882,39.980518,False,5.096903814372276,74828,,4,497
D041234,北京嘉事堂连锁药店有限责任公司幸福街店,B,10694.402,W703139,北京嘉事堂连锁药店有限责任公司,嘉事堂连锁药店(幸福街店),116.610573,39.891188,False,10.105447422770979,161881,,3,498
D041246,北京金象大药房医药连锁有限责任公司博世安金象大药房,B,458.96,W219032,北京金象大药房医药连锁有限责任公司,金象大药房医药连锁(博世安金象大药房),116.37286,39.93181,False,22.45064595063763,376153,,2,499
